{"type":"FeatureCollection","features":[{"id":2066,"type":"Feature","geometry":{"type":"Point","coordinates":[134.2316463,35.50591746]},"properties":{"id":2066,"title":"醇風小学校（避難所)","longitude":134.2316463,"latitude":35.50591746,"分類":"避難所","エリア":"鳥取市","施設名":"醇風小学校","住所":"鳥取市西町5丁目353","電話":857227271,"FAX":857227272,"headers":["id","title","longitude","latitude","分類","エリア","施設名","住所","電話","FAX"]}},{"id":2067,"type":"Feature","geometry":{"type":"Point","coordinates":[134.2254645,35.50592173]},"properties":{"id":2067,"title":"西中学校（避難所)","longitude":134.2254645,"latitude":35.50592173,"分類":"避難所","エリア":"鳥取市","施設名":"西中学校","住所":"鳥取市寿町907","電話":857233341,"FAX":857233342,"headers":["id","title","longitude","latitude","分類","エリア","施設名","住所","電話","FAX"]}},{"id":2068,"type":"Feature","geometry":{"type":"Point","coordinates":[134.226111,35.50439235]},"properties":{"id":2068,"title":"みたから保育園（避難所)","longitude":134.226111,"latitude":35.50439235,"分類":"避難所","エリア":"鳥取市","施設名":"みたから保育園","住所":"鳥取市寿町501","電話":857224245,"FAX":null,"headers":["id","title","longitude","latitude","分類","エリア","施設名","住所","電話","FAX"]}},{"id":2069,"type":"Feature","geometry":{"type":"Point","coordinates":[134.2315311,35.50638183]},"properties":{"id":2069,"title":"醇風地区公民館（避難所)","longitude":134.2315311,"latitude":35.50638183,"分類":"避難所","エリア":"鳥取市","施設名":"醇風地区公民館","住所":"鳥取市西町5丁目353-1","電話":857262568,"FAX":null,"headers":["id","title","longitude","latitude","分類","エリア","施設名","住所","電話","FAX"]}},{"id":2070,"type":"Feature","geometry":{"type":"Point","coordinates":[134.2330001,35.50135447]},"properties":{"id":2070,"title":"遷喬小学校・遷喬地区公民館（避難所)","longitude":134.2330001,"latitude":35.50135447,"分類":"避難所","エリア":"鳥取市","施設名":"遷喬小学校・遷喬地区公民館","住所":"鳥取市本町1丁目108-1","電話":"0857224539 ・ 278562","FAX":857243890,"headers":["id","title","longitude","latitude","分類","エリア","施設名","住所","電話","FAX"]}},{"id":2072,"type":"Feature","geometry":{"type":"Point","coordinates":[134.243091,35.4890878]},"properties":{"id":2072,"title":"修立小学校（避難所)","longitude":134.243091,"latitude":35.4890878,"分類":"避難所","エリア":"鳥取市","施設名":"修立小学校","住所":"鳥取市立川5丁目339","電話":857233361,"FAX":857233362,"headers":["id","title","longitude","latitude","分類","エリア","施設名","住所","電話","FAX"]}},{"id":2074,"type":"Feature","geometry":{"type":"Point","coordinates":[134.2337432,35.49592381]},"properties":{"id":2074,"title":"日進小学校（避難所)","longitude":134.2337432,"latitude":35.49592381,"分類":"避難所","エリア":"鳥取市","施設名":"日進小学校","住所":"鳥取市吉方温泉1丁目131","電話":857233371,"FAX":857233372,"headers":["id","title","longitude","latitude","分類","エリア","施設名","住所","電話","FAX"]}},{"id":2077,"type":"Feature","geometry":{"type":"Point","coordinates":[134.2217944,35.49659707]},"properties":{"id":2077,"title":"明徳小学校（避難所)","longitude":134.2217944,"latitude":35.49659707,"分類":"避難所","エリア":"鳥取市","施設名":"明徳小学校","住所":"鳥取市行徳1丁目201-3","電話":857235661,"FAX":857235662,"headers":["id","title","longitude","latitude","分類","エリア","施設名","住所","電話","FAX"]}},{"id":2075,"type":"Feature","geometry":{"type":"Point","coordinates":[134.2349751,35.49391744]},"properties":{"id":2075,"title":"わかば保育園（避難所)","longitude":134.2349751,"latitude":35.49391744,"分類":"避難所","エリア":"鳥取市","施設名":"わかば保育園","住所":"鳥取市吉方温泉1丁目322","電話":857222559,"FAX":857304137,"headers":["id","title","longitude","latitude","分類","エリア","施設名","住所","電話","FAX"]}},{"id":2078,"type":"Feature","geometry":{"type":"Point","coordinates":[134.2206435,35.49732325]},"properties":{"id":2078,"title":"明徳地区公民館（避難所)","longitude":134.2206435,"latitude":35.49732325,"分類":"避難所","エリア":"鳥取市","施設名":"明徳地区公民館","住所":"鳥取市行徳1丁目210-2","電話":857230988,"FAX":857230993,"headers":["id","title","longitude","latitude","分類","エリア","施設名","住所","電話","FAX"]}},{"id":2080,"type":"Feature","geometry":{"type":"Point","coordinates":[134.2511177,35.4862912]},"properties":{"id":2080,"title":"東中学校（避難所)","longitude":134.2511177,"latitude":35.4862912,"分類":"避難所","エリア":"鳥取市","施設名":"東中学校","住所":"鳥取市立川町6丁目164","電話":857223017,"FAX":857223017,"headers":["id","title","longitude","latitude","分類","エリア","施設名","住所","電話","FAX"]}},{"id":2079,"type":"Feature","geometry":{"type":"Point","coordinates":[134.2505484,35.49093064]},"properties":{"id":2079,"title":"稲葉山小学校（避難所)","longitude":134.2505484,"latitude":35.49093064,"分類":"避難所","エリア":"鳥取市","施設名":"稲葉山小学校","住所":"鳥取市卯垣2丁目657","電話":857228511,"FAX":857228512,"headers":["id","title","longitude","latitude","分類","エリア","施設名","住所","電話","FAX"]}},{"id":2081,"type":"Feature","geometry":{"type":"Point","coordinates":[134.2569333,35.4918199]},"properties":{"id":2081,"title":"稲葉山地区公民館・稲葉山体育館（避難所)","longitude":134.2569333,"latitude":35.4918199,"分類":"避難所","エリア":"鳥取市","施設名":"稲葉山地区公民館・稲葉山体育館","住所":"鳥取市卯垣5丁目57","電話":857242542,"FAX":857242546,"headers":["id","title","longitude","latitude","分類","エリア","施設名","住所","電話","FAX"]}},{"id":2082,"type":"Feature","geometry":{"type":"Point","coordinates":[134.2569883,35.49160393]},"properties":{"id":2082,"title":"稲葉山体育館（避難所)","longitude":134.2569883,"latitude":35.49160393,"分類":"避難所","エリア":"鳥取市","施設名":"稲葉山体育館","住所":"鳥取市卯垣5丁目57","電話":857242542,"FAX":null,"headers":["id","title","longitude","latitude","分類","エリア","施設名","住所","電話","FAX"]}},{"id":2083,"type":"Feature","geometry":{"type":"Point","coordinates":[134.2505422,35.48568146]},"properties":{"id":2083,"title":"岩倉体育館（避難所)","longitude":134.2505422,"latitude":35.48568146,"分類":"避難所","エリア":"鳥取市","施設名":"岩倉体育館","住所":"鳥取市立川町6丁目164","電話":857225621,"FAX":null,"headers":["id","title","longitude","latitude","分類","エリア","施設名","住所","電話","FAX"]}},{"id":2084,"type":"Feature","geometry":{"type":"Point","coordinates":[134.2550267,35.48328196]},"properties":{"id":2084,"title":"岩倉小学校（避難所)","longitude":134.2550267,"latitude":35.48328196,"分類":"避難所","エリア":"鳥取市","施設名":"岩倉小学校","住所":"鳥取市立川町7丁目110","電話":857278101,"FAX":857274799,"headers":["id","title","longitude","latitude","分類","エリア","施設名","住所","電話","FAX"]}},{"id":2085,"type":"Feature","geometry":{"type":"Point","coordinates":[134.2214501,35.51530711]},"properties":{"id":2085,"title":"城北小学校（避難所)","longitude":134.2214501,"latitude":35.51530711,"分類":"避難所","エリア":"鳥取市","施設名":"城北小学校","住所":"鳥取市田園町4丁目324","電話":857230381,"FAX":857230382,"headers":["id","title","longitude","latitude","分類","エリア","施設名","住所","電話","FAX"]}},{"id":2086,"type":"Feature","geometry":{"type":"Point","coordinates":[134.2082528,35.51713396]},"properties":{"id":2086,"title":"千代水地区公民館（避難所)","longitude":134.2082528,"latitude":35.51713396,"分類":"避難所","エリア":"鳥取市","施設名":"千代水地区公民館","住所":"鳥取市商栄町423-2","電話":857274813,"FAX":857274818,"headers":["id","title","longitude","latitude","分類","エリア","施設名","住所","電話","FAX"]}},{"id":2087,"type":"Feature","geometry":{"type":"Point","coordinates":[134.2082088,35.51729494]},"properties":{"id":2087,"title":"千代水体育館（避難所)","longitude":134.2082088,"latitude":35.51729494,"分類":"避難所","エリア":"鳥取市","施設名":"千代水体育館","住所":"鳥取市商栄町422","電話":857274813,"FAX":null,"headers":["id","title","longitude","latitude","分類","エリア","施設名","住所","電話","FAX"]}},{"id":2089,"type":"Feature","geometry":{"type":"Point","coordinates":[134.2364117,35.51866499]},"properties":{"id":2089,"title":"中ノ郷小学校（避難所)","longitude":134.2364117,"latitude":35.51866499,"分類":"避難所","エリア":"鳥取市","施設名":"中ノ郷小学校","住所":"鳥取市円護寺268","電話":857263536,"FAX":857263537,"headers":["id","title","longitude","latitude","分類","エリア","施設名","住所","電話","FAX"]}},{"id":2089,"type":"Feature","geometry":{"type":"Point","coordinates":[134.2364117,35.51866499]},"properties":{"id":2089,"title":"中ノ郷小学校（避難所)","longitude":134.2364117,"latitude":35.51866499,"分類":"避難所","エリア":"鳥取市","施設名":"中ノ郷小学校","住所":"鳥取市円護寺268","電話":857263536,"FAX":857263537,"headers":["id","title","longitude","latitude","分類","エリア","施設名","住所","電話","FAX"]}},{"id":2090,"type":"Feature","geometry":{"type":"Point","coordinates":[134.2353367,35.51891902]},"properties":{"id":2090,"title":"中ノ郷地区公民館（避難所)","longitude":134.2353367,"latitude":35.51891902,"分類":"避難所","エリア":"鳥取市","施設名":"中ノ郷地区公民館","住所":"鳥取市覚寺118","電話":857215393,"FAX":857215409,"headers":["id","title","longitude","latitude","分類","エリア","施設名","住所","電話","FAX"]}},{"id":2093,"type":"Feature","geometry":{"type":"Point","coordinates":[134.2115081,35.52901567]},"properties":{"id":2093,"title":"浜坂体育館（避難所)","longitude":134.2115081,"latitude":35.52901567,"分類":"避難所","エリア":"鳥取市","施設名":"浜坂体育館","住所":"鳥取市浜坂2丁目9-10","電話":857270711,"FAX":null,"headers":["id","title","longitude","latitude","分類","エリア","施設名","住所","電話","FAX"]}},{"id":2094,"type":"Feature","geometry":{"type":"Point","coordinates":[134.1962196,35.53053915]},"properties":{"id":2094,"title":"賀露小学校（避難所)","longitude":134.1962196,"latitude":35.53053915,"分類":"避難所","エリア":"鳥取市","施設名":"賀露小学校","住所":"鳥取市賀露町778","電話":857281005,"FAX":857313993,"headers":["id","title","longitude","latitude","分類","エリア","施設名","住所","電話","FAX"]}},{"id":2091,"type":"Feature","geometry":{"type":"Point","coordinates":[134.2175645,35.52915081]},"properties":{"id":2091,"title":"浜坂小学校（避難所)","longitude":134.2175645,"latitude":35.52915081,"分類":"避難所","エリア":"鳥取市","施設名":"浜坂小学校","住所":"鳥取市浜坂1丁目14-1","電話":857270833,"FAX":857215844,"headers":["id","title","longitude","latitude","分類","エリア","施設名","住所","電話","FAX"]}},{"id":2095,"type":"Feature","geometry":{"type":"Point","coordinates":[134.2194752,35.50440981]},"properties":{"id":2095,"title":"富桑小学校（避難所)","longitude":134.2194752,"latitude":35.50440981,"分類":"避難所","エリア":"鳥取市","施設名":"富桑小学校","住所":"鳥取市西品治134","電話":857224239,"FAX":857215841,"headers":["id","title","longitude","latitude","分類","エリア","施設名","住所","電話","FAX"]}},{"id":2097,"type":"Feature","geometry":{"type":"Point","coordinates":[134.2174115,35.50615657]},"properties":{"id":2097,"title":"富桑体育館（避難所)","longitude":134.2174115,"latitude":35.50615657,"分類":"避難所","エリア":"鳥取市","施設名":"富桑体育館","住所":"鳥取市西品治283-1","電話":857274585,"FAX":null,"headers":["id","title","longitude","latitude","分類","エリア","施設名","住所","電話","FAX"]}},{"id":2099,"type":"Feature","geometry":{"type":"Point","coordinates":[134.2300999,35.48680347]},"properties":{"id":2099,"title":"南中学校（避難所)","longitude":134.2300999,"latitude":35.48680347,"分類":"避難所","エリア":"鳥取市","施設名":"南中学校","住所":"鳥取市興南町91","電話":857223617,"FAX":857243925,"headers":["id","title","longitude","latitude","分類","エリア","施設名","住所","電話","FAX"]}},{"id":2098,"type":"Feature","geometry":{"type":"Point","coordinates":[134.2239197,35.48393225]},"properties":{"id":2098,"title":"美保小学校（避難所)","longitude":134.2239197,"latitude":35.48393225,"分類":"避難所","エリア":"鳥取市","施設名":"美保小学校","住所":"鳥取市吉成1丁目10-25","電話":857224939,"FAX":857224954,"headers":["id","title","longitude","latitude","分類","エリア","施設名","住所","電話","FAX"]}},{"id":2092,"type":"Feature","geometry":{"type":"Point","coordinates":[134.2103094,35.52333337]},"properties":{"id":2092,"title":"千代保育園（避難所)","longitude":134.2103094,"latitude":35.52333337,"分類":"避難所","エリア":"鳥取市","施設名":"千代保育園","住所":"鳥取市江津730","電話":857237049,"FAX":null,"headers":["id","title","longitude","latitude","分類","エリア","施設名","住所","電話","FAX"]}},{"id":2099,"type":"Feature","geometry":{"type":"Point","coordinates":[134.2300999,35.48680347]},"properties":{"id":2099,"title":"南中学校（避難所)","longitude":134.2300999,"latitude":35.48680347,"分類":"避難所","エリア":"鳥取市","施設名":"南中学校","住所":"鳥取市興南町91","電話":857223617,"FAX":857243925,"headers":["id","title","longitude","latitude","分類","エリア","施設名","住所","電話","FAX"]}},{"id":2100,"type":"Feature","geometry":{"type":"Point","coordinates":[134.2248854,35.48566644]},"properties":{"id":2100,"title":"美保地区公民館（避難所)","longitude":134.2248854,"latitude":35.48566644,"分類":"避難所","エリア":"鳥取市","施設名":"美保地区公民館","住所":"鳥取市吉成2丁目5-22","電話":857263981,"FAX":857264002,"headers":["id","title","longitude","latitude","分類","エリア","施設名","住所","電話","FAX"]}},{"id":2101,"type":"Feature","geometry":{"type":"Point","coordinates":[134.2223899,35.47891734]},"properties":{"id":2101,"title":"美保南小学校（避難所)","longitude":134.2223899,"latitude":35.47891734,"分類":"避難所","エリア":"鳥取市","施設名":"美保南小学校","住所":"鳥取市宮長200-1","電話":857534454,"FAX":857531911,"headers":["id","title","longitude","latitude","分類","エリア","施設名","住所","電話","FAX"]}},{"id":2103,"type":"Feature","geometry":{"type":"Point","coordinates":[134.220856,35.47396269]},"properties":{"id":2103,"title":"美保南体育館（避難所)","longitude":134.220856,"latitude":35.47396269,"分類":"避難所","エリア":"鳥取市","施設名":"美保南体育館","住所":"鳥取市叶286-12","電話":857534798,"FAX":null,"headers":["id","title","longitude","latitude","分類","エリア","施設名","住所","電話","FAX"]}},{"id":2102,"type":"Feature","geometry":{"type":"Point","coordinates":[134.2207101,35.47338885]},"properties":{"id":2102,"title":"美保南地区公民館（避難所)","longitude":134.2207101,"latitude":35.47338885,"分類":"避難所","エリア":"鳥取市","施設名":"美保南地区公民館","住所":"鳥取市叶286","電話":857534798,"FAX":857534809,"headers":["id","title","longitude","latitude","分類","エリア","施設名","住所","電話","FAX"]}},{"id":2105,"type":"Feature","geometry":{"type":"Point","coordinates":[134.2085555,35.433306]},"properties":{"id":2105,"title":"西円通寺児童館（避難所)","longitude":134.2085555,"latitude":35.433306,"分類":"避難所","エリア":"鳥取市","施設名":"西円通寺児童館","住所":"鳥取市西円通寺104-3","電話":857536175,"FAX":null,"headers":["id","title","longitude","latitude","分類","エリア","施設名","住所","電話","FAX"]}},{"id":2104,"type":"Feature","geometry":{"type":"Point","coordinates":[134.2156093,35.45034129]},"properties":{"id":2104,"title":"倉田小学校（避難所)","longitude":134.2156093,"latitude":35.45034129,"分類":"避難所","エリア":"鳥取市","施設名":"倉田小学校","住所":"鳥取市八坂54-1","電話":857531042,"FAX":857535884,"headers":["id","title","longitude","latitude","分類","エリア","施設名","住所","電話","FAX"]}},{"id":2107,"type":"Feature","geometry":{"type":"Point","coordinates":[134.2173241,35.45114525]},"properties":{"id":2107,"title":"倉田地区公民館（避難所)","longitude":134.2173241,"latitude":35.45114525,"分類":"避難所","エリア":"鳥取市","施設名":"倉田地区公民館","住所":"鳥取市八坂365-2","電話":857532259,"FAX":null,"headers":["id","title","longitude","latitude","分類","エリア","施設名","住所","電話","FAX"]}},{"id":2109,"type":"Feature","geometry":{"type":"Point","coordinates":[134.2217774,35.45822261]},"properties":{"id":2109,"title":"鳥取市営サッカー場（バードスタジアム）（避難所)","longitude":134.2217774,"latitude":35.45822261,"分類":"避難所","エリア":"鳥取市","施設名":"鳥取市営サッカー場（バードスタジアム）","住所":"鳥取市蔵田423","電話":857536565,"FAX":null,"headers":["id","title","longitude","latitude","分類","エリア","施設名","住所","電話","FAX"]}},{"id":2106,"type":"Feature","geometry":{"type":"Point","coordinates":[134.2163552,35.45148819]},"properties":{"id":2106,"title":"倉田体育館（避難所)","longitude":134.2163552,"latitude":35.45148819,"分類":"避難所","エリア":"鳥取市","施設名":"倉田体育館","住所":"鳥取市八坂49-1","電話":null,"FAX":null,"headers":["id","title","longitude","latitude","分類","エリア","施設名","住所","電話","FAX"]}},{"id":2109,"type":"Feature","geometry":{"type":"Point","coordinates":[134.2217774,35.45822261]},"properties":{"id":2109,"title":"鳥取市営サッカー場（バードスタジアム）（避難所)","longitude":134.2217774,"latitude":35.45822261,"分類":"避難所","エリア":"鳥取市","施設名":"鳥取市営サッカー場（バードスタジアム）","住所":"鳥取市蔵田423","電話":857536565,"FAX":null,"headers":["id","title","longitude","latitude","分類","エリア","施設名","住所","電話","FAX"]}},{"id":2110,"type":"Feature","geometry":{"type":"Point","coordinates":[134.2405643,35.4812211]},"properties":{"id":2110,"title":"面影小学校（避難所)","longitude":134.2405643,"latitude":35.4812211,"分類":"避難所","エリア":"鳥取市","施設名":"面影小学校","住所":"鳥取市雲山42","電話":857224502,"FAX":857271261,"headers":["id","title","longitude","latitude","分類","エリア","施設名","住所","電話","FAX"]}},{"id":2111,"type":"Feature","geometry":{"type":"Point","coordinates":[134.2464196,35.47864853]},"properties":{"id":2111,"title":"白ゆり保育園（避難所)","longitude":134.2464196,"latitude":35.47864853,"分類":"避難所","エリア":"鳥取市","施設名":"白ゆり保育園","住所":"鳥取市面影１丁目8-16","電話":857225712,"FAX":null,"headers":["id","title","longitude","latitude","分類","エリア","施設名","住所","電話","FAX"]}},{"id":2113,"type":"Feature","geometry":{"type":"Point","coordinates":[134.2465877,35.47078953]},"properties":{"id":2113,"title":"面影地区公民館（避難所)","longitude":134.2465877,"latitude":35.47078953,"分類":"避難所","エリア":"鳥取市","施設名":"面影地区公民館","住所":"鳥取市桜谷162-6","電話":857249033,"FAX":null,"headers":["id","title","longitude","latitude","分類","エリア","施設名","住所","電話","FAX"]}},{"id":2115,"type":"Feature","geometry":{"type":"Point","coordinates":[134.2041325,35.45414168]},"properties":{"id":2115,"title":"美和小学校（避難所)","longitude":134.2041325,"latitude":35.45414168,"分類":"避難所","エリア":"鳥取市","施設名":"美和小学校","住所":"鳥取市竹生64","電話":857532355,"FAX":857533408,"headers":["id","title","longitude","latitude","分類","エリア","施設名","住所","電話","FAX"]}},{"id":2117,"type":"Feature","geometry":{"type":"Point","coordinates":[134.2075775,35.46811402]},"properties":{"id":2117,"title":"江山人権福祉センター（避難所)","longitude":134.2075775,"latitude":35.46811402,"分類":"避難所","エリア":"鳥取市","施設名":"江山人権福祉センター","住所":"鳥取市下味野1058-3","電話":857531542,"FAX":null,"headers":["id","title","longitude","latitude","分類","エリア","施設名","住所","電話","FAX"]}},{"id":2114,"type":"Feature","geometry":{"type":"Point","coordinates":[134.1664353,35.41670276]},"properties":{"id":2114,"title":"神戸小学校（避難所)","longitude":134.1664353,"latitude":35.41670276,"分類":"避難所","エリア":"鳥取市","施設名":"神戸小学校","住所":"鳥取市中砂見936","電話":857550007,"FAX":857550242,"headers":["id","title","longitude","latitude","分類","エリア","施設名","住所","電話","FAX"]}},{"id":2118,"type":"Feature","geometry":{"type":"Point","coordinates":[134.2075775,35.46787916]},"properties":{"id":2118,"title":"下味野児童館（避難所)","longitude":134.2075775,"latitude":35.46787916,"分類":"避難所","エリア":"鳥取市","施設名":"下味野児童館","住所":"鳥取市下味野1058-2","電話":857531010,"FAX":null,"headers":["id","title","longitude","latitude","分類","エリア","施設名","住所","電話","FAX"]}},{"id":2121,"type":"Feature","geometry":{"type":"Point","coordinates":[134.2081216,35.49445389]},"properties":{"id":2121,"title":"大正小学校（避難所)","longitude":134.2081216,"latitude":35.49445389,"分類":"避難所","エリア":"鳥取市","施設名":"大正小学校","住所":"鳥取市古海291-3","電話":857222739,"FAX":857215843,"headers":["id","title","longitude","latitude","分類","エリア","施設名","住所","電話","FAX"]}},{"id":2119,"type":"Feature","geometry":{"type":"Point","coordinates":[134.2022437,35.44614749]},"properties":{"id":2119,"title":"大和地区体育館（避難所)","longitude":134.2022437,"latitude":35.44614749,"分類":"避難所","エリア":"鳥取市","施設名":"大和地区体育館","住所":"鳥取市倭文121-2","電話":857530404,"FAX":null,"headers":["id","title","longitude","latitude","分類","エリア","施設名","住所","電話","FAX"]}},{"id":2119,"type":"Feature","geometry":{"type":"Point","coordinates":[134.2022437,35.44614749]},"properties":{"id":2119,"title":"大和地区体育館（避難所)","longitude":134.2022437,"latitude":35.44614749,"分類":"避難所","エリア":"鳥取市","施設名":"大和地区体育館","住所":"鳥取市倭文121-2","電話":857530404,"FAX":null,"headers":["id","title","longitude","latitude","分類","エリア","施設名","住所","電話","FAX"]}},{"id":2121,"type":"Feature","geometry":{"type":"Point","coordinates":[134.2081216,35.49445389]},"properties":{"id":2121,"title":"大正小学校（避難所)","longitude":134.2081216,"latitude":35.49445389,"分類":"避難所","エリア":"鳥取市","施設名":"大正小学校","住所":"鳥取市古海291-3","電話":857222739,"FAX":857215843,"headers":["id","title","longitude","latitude","分類","エリア","施設名","住所","電話","FAX"]}},{"id":2122,"type":"Feature","geometry":{"type":"Point","coordinates":[134.2053876,35.50246578]},"properties":{"id":2122,"title":"高草中学校（避難所)","longitude":134.2053876,"latitude":35.50246578,"分類":"避難所","エリア":"鳥取市","施設名":"高草中学校","住所":"鳥取市徳尾108－1","電話":857224455,"FAX":857237240,"headers":["id","title","longitude","latitude","分類","エリア","施設名","住所","電話","FAX"]}},{"id":2123,"type":"Feature","geometry":{"type":"Point","coordinates":[134.2093535,35.49948414]},"properties":{"id":2123,"title":"古海児童館（避難所)","longitude":134.2093535,"latitude":35.49948414,"分類":"避難所","エリア":"鳥取市","施設名":"古海児童館","住所":"鳥取市古海753-16","電話":857290898,"FAX":null,"headers":["id","title","longitude","latitude","分類","エリア","施設名","住所","電話","FAX"]}},{"id":2125,"type":"Feature","geometry":{"type":"Point","coordinates":[134.2090501,35.50113804]},"properties":{"id":2125,"title":"大正体育館（避難所)","longitude":134.2090501,"latitude":35.50113804,"分類":"避難所","エリア":"鳥取市","施設名":"大正体育館","住所":"鳥取市古海708-1","電話":857263982,"FAX":null,"headers":["id","title","longitude","latitude","分類","エリア","施設名","住所","電話","FAX"]}},{"id":2127,"type":"Feature","geometry":{"type":"Point","coordinates":[134.1931327,35.47888166]},"properties":{"id":2127,"title":"東郷体育館（避難所)","longitude":134.1931327,"latitude":35.47888166,"分類":"避難所","エリア":"鳥取市","施設名":"東郷体育館","住所":"鳥取市北村32-1","電話":857211365,"FAX":null,"headers":["id","title","longitude","latitude","分類","エリア","施設名","住所","電話","FAX"]}},{"id":2126,"type":"Feature","geometry":{"type":"Point","coordinates":[134.1846783,35.46966146]},"properties":{"id":2126,"title":"東郷小学校（避難所)","longitude":134.1846783,"latitude":35.46966146,"分類":"避難所","エリア":"鳥取市","施設名":"東郷小学校","住所":"鳥取市篠坂6-1","電話":857532542,"FAX":857535583,"headers":["id","title","longitude","latitude","分類","エリア","施設名","住所","電話","FAX"]}},{"id":2120,"type":"Feature","geometry":{"type":"Point","coordinates":[134.205298,35.44264413]},"properties":{"id":2120,"title":"倭文児童館（避難所)","longitude":134.205298,"latitude":35.44264413,"分類":"避難所","エリア":"鳥取市","施設名":"倭文児童館","住所":"鳥取市倭文742-3","電話":857531670,"FAX":null,"headers":["id","title","longitude","latitude","分類","エリア","施設名","住所","電話","FAX"]}},{"id":2124,"type":"Feature","geometry":{"type":"Point","coordinates":[134.2074099,35.49405098]},"properties":{"id":2124,"title":"大正地区公民館（避難所)","longitude":134.2074099,"latitude":35.49405098,"分類":"避難所","エリア":"鳥取市","施設名":"大正地区公民館","住所":"鳥取市古海556","電話":857263982,"FAX":857263985,"headers":["id","title","longitude","latitude","分類","エリア","施設名","住所","電話","FAX"]}},{"id":2128,"type":"Feature","geometry":{"type":"Point","coordinates":[134.1980423,35.50241168]},"properties":{"id":2128,"title":"世紀小学校（避難所)","longitude":134.1980423,"latitude":35.50241168,"分類":"避難所","エリア":"鳥取市","施設名":"世紀小学校","住所":"鳥取市徳尾407","電話":857230197,"FAX":857215845,"headers":["id","title","longitude","latitude","分類","エリア","施設名","住所","電話","FAX"]}},{"id":2129,"type":"Feature","geometry":{"type":"Point","coordinates":[134.1758141,35.48427551]},"properties":{"id":2129,"title":"豊実体育館（避難所)","longitude":134.1758141,"latitude":35.48427551,"分類":"避難所","エリア":"鳥取市","施設名":"豊実体育館","住所":"鳥取市野坂927","電話":857240604,"FAX":null,"headers":["id","title","longitude","latitude","分類","エリア","施設名","住所","電話","FAX"]}},{"id":2131,"type":"Feature","geometry":{"type":"Point","coordinates":[134.1816911,35.50319233]},"properties":{"id":2131,"title":"松保保育園（避難所)","longitude":134.1816911,"latitude":35.50319233,"分類":"避難所","エリア":"鳥取市","施設名":"松保保育園","住所":"鳥取市布勢91-1","電話":857280474,"FAX":857280439,"headers":["id","title","longitude","latitude","分類","エリア","施設名","住所","電話","FAX"]}},{"id":2132,"type":"Feature","geometry":{"type":"Point","coordinates":[134.185198,35.50052135]},"properties":{"id":2132,"title":"松保体育館（避難所)","longitude":134.185198,"latitude":35.50052135,"分類":"避難所","エリア":"鳥取市","施設名":"松保体育館","住所":"鳥取市里仁560-1","電話":857281192,"FAX":null,"headers":["id","title","longitude","latitude","分類","エリア","施設名","住所","電話","FAX"]}},{"id":2133,"type":"Feature","geometry":{"type":"Point","coordinates":[134.1777856,35.51611262]},"properties":{"id":2133,"title":"湖山小学校（避難所)","longitude":134.1777856,"latitude":35.51611262,"分類":"避難所","エリア":"鳥取市","施設名":"湖山小学校","住所":"鳥取市湖山町南1丁目656","電話":857281020,"FAX":857280030,"headers":["id","title","longitude","latitude","分類","エリア","施設名","住所","電話","FAX"]}},{"id":2134,"type":"Feature","geometry":{"type":"Point","coordinates":[134.170753,35.52235771]},"properties":{"id":2134,"title":"湖山西小学校（避難所)","longitude":134.170753,"latitude":35.52235771,"分類":"避難所","エリア":"鳥取市","施設名":"湖山西小学校","住所":"鳥取市湖山町西1丁目541","電話":857288900,"FAX":857288901,"headers":["id","title","longitude","latitude","分類","エリア","施設名","住所","電話","FAX"]}},{"id":2138,"type":"Feature","geometry":{"type":"Point","coordinates":[134.1689333,35.52164118]},"properties":{"id":2138,"title":"湖山西体育館（避難所)","longitude":134.1689333,"latitude":35.52164118,"分類":"避難所","エリア":"鳥取市","施設名":"湖山西体育館","住所":"鳥取市湖山町西1丁目512","電話":857313581,"FAX":null,"headers":["id","title","longitude","latitude","分類","エリア","施設名","住所","電話","FAX"]}},{"id":2135,"type":"Feature","geometry":{"type":"Point","coordinates":[134.1824285,35.51997621]},"properties":{"id":2135,"title":"湖東中学校（避難所)","longitude":134.1824285,"latitude":35.51997621,"分類":"避難所","エリア":"鳥取市","施設名":"湖東中学校","住所":"鳥取市湖山町北6丁目323","電話":857281064,"FAX":857280041,"headers":["id","title","longitude","latitude","分類","エリア","施設名","住所","電話","FAX"]}},{"id":2136,"type":"Feature","geometry":{"type":"Point","coordinates":[134.1774307,35.51498376]},"properties":{"id":2136,"title":"湖山保育園（避難所)","longitude":134.1774307,"latitude":35.51498376,"分類":"避難所","エリア":"鳥取市","施設名":"湖山保育園","住所":"鳥取市湖山町南1丁目825","電話":857281573,"FAX":null,"headers":["id","title","longitude","latitude","分類","エリア","施設名","住所","電話","FAX"]}},{"id":2137,"type":"Feature","geometry":{"type":"Point","coordinates":[134.1694492,35.52178575]},"properties":{"id":2137,"title":"学習・交流センター鳥取（国際交流プラザ・湖山西地区公民館）（避難所)","longitude":134.1694492,"latitude":35.52178575,"分類":"避難所","エリア":"鳥取市","施設名":"学習・交流センター鳥取（国際交流プラザ・湖山西地区公民館）","住所":"鳥取市湖山町西1丁目512","電話":857313253,"FAX":null,"headers":["id","title","longitude","latitude","分類","エリア","施設名","住所","電話","FAX"]}},{"id":2140,"type":"Feature","geometry":{"type":"Point","coordinates":[134.1285892,35.48497437]},"properties":{"id":2140,"title":"旧湖南中学校（避難所)","longitude":134.1285892,"latitude":35.48497437,"分類":"避難所","エリア":"鳥取市","施設名":"旧湖南中学校","住所":"鳥取市吉岡温泉町789-1","電話":857570014,"FAX":857540426,"headers":["id","title","longitude","latitude","分類","エリア","施設名","住所","電話","FAX"]}},{"id":2140,"type":"Feature","geometry":{"type":"Point","coordinates":[134.1285892,35.48497437]},"properties":{"id":2140,"title":"旧湖南中学校（避難所)","longitude":134.1285892,"latitude":35.48497437,"分類":"避難所","エリア":"鳥取市","施設名":"旧湖南中学校","住所":"鳥取市吉岡温泉町789-1","電話":857570014,"FAX":857540426,"headers":["id","title","longitude","latitude","分類","エリア","施設名","住所","電話","FAX"]}},{"id":2141,"type":"Feature","geometry":{"type":"Point","coordinates":[134.1317967,35.48744031]},"properties":{"id":2141,"title":"湖南保育園（避難所)","longitude":134.1317967,"latitude":35.48744031,"分類":"避難所","エリア":"鳥取市","施設名":"湖南保育園","住所":"鳥取市松原419-2","電話":857570116,"FAX":null,"headers":["id","title","longitude","latitude","分類","エリア","施設名","住所","電話","FAX"]}},{"id":2142,"type":"Feature","geometry":{"type":"Point","coordinates":[134.1315652,35.48766251]},"properties":{"id":2142,"title":"湖南地区公民館（避難所)","longitude":134.1315652,"latitude":35.48766251,"分類":"避難所","エリア":"鳥取市","施設名":"湖南地区公民館","住所":"鳥取市吉岡温泉町894-14","電話":857540804,"FAX":null,"headers":["id","title","longitude","latitude","分類","エリア","施設名","住所","電話","FAX"]}},{"id":2143,"type":"Feature","geometry":{"type":"Point","coordinates":[134.1327756,35.48634546]},"properties":{"id":2143,"title":"湖南児童館・中央人権福祉センター湖南分館（避難所)","longitude":134.1327756,"latitude":35.48634546,"分類":"避難所","エリア":"鳥取市","施設名":"湖南児童館・中央人権福祉センター湖南分館","住所":"鳥取市松原427-14","電話":857540124,"FAX":null,"headers":["id","title","longitude","latitude","分類","エリア","施設名","住所","電話","FAX"]}},{"id":2144,"type":"Feature","geometry":{"type":"Point","coordinates":[134.1328053,35.49855505]},"properties":{"id":2144,"title":"大郷会館（湖南地区公民館分館・湖南体育館）（避難所)","longitude":134.1328053,"latitude":35.49855505,"分類":"避難所","エリア":"鳥取市","施設名":"大郷会館（湖南地区公民館分館・湖南体育館）","住所":"鳥取市金沢16-2","電話":857540226,"FAX":null,"headers":["id","title","longitude","latitude","分類","エリア","施設名","住所","電話","FAX"]}},{"id":2145,"type":"Feature","geometry":{"type":"Point","coordinates":[134.1356733,35.52592244]},"properties":{"id":2145,"title":"末恒小学校（避難所)","longitude":134.1356733,"latitude":35.52592244,"分類":"避難所","エリア":"鳥取市","施設名":"末恒小学校","住所":"鳥取市伏野2256-61","電話":857590321,"FAX":857592075,"headers":["id","title","longitude","latitude","分類","エリア","施設名","住所","電話","FAX"]}},{"id":2146,"type":"Feature","geometry":{"type":"Point","coordinates":[134.1335087,35.52599733]},"properties":{"id":2146,"title":"末恒体育館（避難所)","longitude":134.1335087,"latitude":35.52599733,"分類":"避難所","エリア":"鳥取市","施設名":"末恒体育館","住所":"鳥取市伏野1986-9","電話":857591147,"FAX":null,"headers":["id","title","longitude","latitude","分類","エリア","施設名","住所","電話","FAX"]}},{"id":2147,"type":"Feature","geometry":{"type":"Point","coordinates":[134.2384887,35.45979574]},"properties":{"id":2147,"title":"米里小学校（避難所)","longitude":134.2384887,"latitude":35.45979574,"分類":"避難所","エリア":"鳥取市","施設名":"米里小学校","住所":"鳥取市古郡家75-1","電話":857518038,"FAX":857530114,"headers":["id","title","longitude","latitude","分類","エリア","施設名","住所","電話","FAX"]}},{"id":2148,"type":"Feature","geometry":{"type":"Point","coordinates":[134.2376309,35.45949877]},"properties":{"id":2148,"title":"米里体育館（避難所)","longitude":134.2376309,"latitude":35.45949877,"分類":"避難所","エリア":"鳥取市","施設名":"米里体育館","住所":"鳥取市古郡家84-1","電話":857518128,"FAX":null,"headers":["id","title","longitude","latitude","分類","エリア","施設名","住所","電話","FAX"]}},{"id":2149,"type":"Feature","geometry":{"type":"Point","coordinates":[134.2379687,35.46611309]},"properties":{"id":2149,"title":"よねさと保育園（避難所)","longitude":134.2379687,"latitude":35.46611309,"分類":"避難所","エリア":"鳥取市","施設名":"よねさと保育園","住所":"鳥取市中大路49-1","電話":857530411,"FAX":857530520,"headers":["id","title","longitude","latitude","分類","エリア","施設名","住所","電話","FAX"]}},{"id":2150,"type":"Feature","geometry":{"type":"Point","coordinates":[134.2507082,35.45926777]},"properties":{"id":2150,"title":"津ノ井小学校（避難所)","longitude":134.2507082,"latitude":35.45926777,"分類":"避難所","エリア":"鳥取市","施設名":"津ノ井小学校","住所":"鳥取市桂木238-1","電話":857518136,"FAX":857530185,"headers":["id","title","longitude","latitude","分類","エリア","施設名","住所","電話","FAX"]}},{"id":2151,"type":"Feature","geometry":{"type":"Point","coordinates":[134.2492778,35.45590721]},"properties":{"id":2151,"title":"津ノ井体育館（避難所)","longitude":134.2492778,"latitude":35.45590721,"分類":"避難所","エリア":"鳥取市","施設名":"津ノ井体育館","住所":"鳥取市桂木307-11","電話":857518253,"FAX":null,"headers":["id","title","longitude","latitude","分類","エリア","施設名","住所","電話","FAX"]}},{"id":2153,"type":"Feature","geometry":{"type":"Point","coordinates":[134.2636697,35.44773447]},"properties":{"id":2153,"title":"わかば台保育園（避難所)","longitude":134.2636697,"latitude":35.44773447,"分類":"避難所","エリア":"鳥取市","施設名":"わかば台保育園","住所":"鳥取市若葉台南2丁目205-2","電話":857526126,"FAX":857526160,"headers":["id","title","longitude","latitude","分類","エリア","施設名","住所","電話","FAX"]}},{"id":2154,"type":"Feature","geometry":{"type":"Point","coordinates":[134.2635177,35.4482101]},"properties":{"id":2154,"title":"若葉台地区公民館（避難所)","longitude":134.2635177,"latitude":35.4482101,"分類":"避難所","エリア":"鳥取市","施設名":"若葉台地区公民館","住所":"鳥取市若葉台南2丁目16-1","電話":857522616,"FAX":857522616,"headers":["id","title","longitude","latitude","分類","エリア","施設名","住所","電話","FAX"]}},{"id":2155,"type":"Feature","geometry":{"type":"Point","coordinates":[134.2640564,35.44835112]},"properties":{"id":2155,"title":"若葉台体育館（避難所)","longitude":134.2640564,"latitude":35.44835112,"分類":"避難所","エリア":"鳥取市","施設名":"若葉台体育館","住所":"鳥取市若葉台南2丁目16-1","電話":857522616,"FAX":null,"headers":["id","title","longitude","latitude","分類","エリア","施設名","住所","電話","FAX"]}},{"id":2152,"type":"Feature","geometry":{"type":"Point","coordinates":[134.2613634,35.44747627]},"properties":{"id":2152,"title":"若葉台小学校（避難所)","longitude":134.2613634,"latitude":35.44747627,"分類":"避難所","エリア":"鳥取市","施設名":"若葉台小学校","住所":"鳥取市若葉台南2丁目17-1","電話":857527200,"FAX":857527210,"headers":["id","title","longitude","latitude","分類","エリア","施設名","住所","電話","FAX"]}},{"id":2157,"type":"Feature","geometry":{"type":"Point","coordinates":[134.2958337,35.4641668]},"properties":{"id":2157,"title":"国府地区保健センター（避難所)","longitude":134.2958337,"latitude":35.4641668,"分類":"避難所","エリア":"鳥取市","施設名":"国府地区保健センター","住所":"鳥取市国府町糸谷15番地1","電話":857390556,"FAX":null,"headers":["id","title","longitude","latitude","分類","エリア","施設名","住所","電話","FAX"]}},{"id":2158,"type":"Feature","geometry":{"type":"Point","coordinates":[134.2964268,35.46087829]},"properties":{"id":2158,"title":"国府東小学校（避難所)","longitude":134.2964268,"latitude":35.46087829,"分類":"避難所","エリア":"鳥取市","施設名":"国府東小学校","住所":"鳥取市国府町谷3番地","電話":857224872,"FAX":857224883,"headers":["id","title","longitude","latitude","分類","エリア","施設名","住所","電話","FAX"]}},{"id":2156,"type":"Feature","geometry":{"type":"Point","coordinates":[134.364167,35.46972243]},"properties":{"id":2156,"title":"栃本児童館（避難所)","longitude":134.364167,"latitude":35.46972243,"分類":"避難所","エリア":"鳥取市","施設名":"栃本児童館","住所":"鳥取市国府町栃本２７番地１","電話":857580074,"FAX":null,"headers":["id","title","longitude","latitude","分類","エリア","施設名","住所","電話","FAX"]}},{"id":2159,"type":"Feature","geometry":{"type":"Point","coordinates":[134.2738665,35.47254696]},"properties":{"id":2159,"title":"国府町中央公民館（避難所)","longitude":134.2738665,"latitude":35.47254696,"分類":"避難所","エリア":"鳥取市","施設名":"国府町中央公民館","住所":"鳥取市国府町庁３８０番地","電話":857241642,"FAX":857240692,"headers":["id","title","longitude","latitude","分類","エリア","施設名","住所","電話","FAX"]}},{"id":2160,"type":"Feature","geometry":{"type":"Point","coordinates":[134.2765242,35.47340536]},"properties":{"id":2160,"title":"国府町体育館（避難所)","longitude":134.2765242,"latitude":35.47340536,"分類":"避難所","エリア":"鳥取市","施設名":"国府町体育館","住所":"鳥取市国府町町屋725番地","電話":857220118,"FAX":null,"headers":["id","title","longitude","latitude","分類","エリア","施設名","住所","電話","FAX"]}},{"id":2164,"type":"Feature","geometry":{"type":"Point","coordinates":[134.2761112,35.47416626]},"properties":{"id":2164,"title":"国府町運動場（避難所)","longitude":134.2761112,"latitude":35.47416626,"分類":"避難所","エリア":"鳥取市","施設名":"国府町運動場","住所":"鳥取市国府町町屋723番地","電話":null,"FAX":null,"headers":["id","title","longitude","latitude","分類","エリア","施設名","住所","電話","FAX"]}},{"id":2161,"type":"Feature","geometry":{"type":"Point","coordinates":[134.2749343,35.47371554]},"properties":{"id":2161,"title":"国府中学校（避難所)","longitude":134.2749343,"latitude":35.47371554,"分類":"避難所","エリア":"鳥取市","施設名":"国府中学校","住所":"鳥取市国府町町屋720番地","電話":857275261,"FAX":857275262,"headers":["id","title","longitude","latitude","分類","エリア","施設名","住所","電話","FAX"]}},{"id":2165,"type":"Feature","geometry":{"type":"Point","coordinates":[134.2619222,35.48002892]},"properties":{"id":2165,"title":"いなば公園（避難所)","longitude":134.2619222,"latitude":35.48002892,"分類":"避難所","エリア":"鳥取市","施設名":"いなば公園","住所":"鳥取市国府町宮下1226番地","電話":null,"FAX":null,"headers":["id","title","longitude","latitude","分類","エリア","施設名","住所","電話","FAX"]}},{"id":2166,"type":"Feature","geometry":{"type":"Point","coordinates":[134.2519,35.48031333]},"properties":{"id":2166,"title":"新通り２公共空地（新通り公園）（避難所)","longitude":134.2519,"latitude":35.48031333,"分類":"避難所","エリア":"鳥取市","施設名":"新通り２公共空地（新通り公園）","住所":"鳥取市国府町新通り2丁目367","電話":null,"FAX":null,"headers":["id","title","longitude","latitude","分類","エリア","施設名","住所","電話","FAX"]}},{"id":2168,"type":"Feature","geometry":{"type":"Point","coordinates":[134.1997994,35.39465226]},"properties":{"id":2168,"title":"河原町総合体育館（避難所)","longitude":134.1997994,"latitude":35.39465226,"分類":"避難所","エリア":"鳥取市","施設名":"河原町総合体育館","住所":"鳥取市河原町曳田20-1","電話":858763122,"FAX":null,"headers":["id","title","longitude","latitude","分類","エリア","施設名","住所","電話","FAX"]}},{"id":2167,"type":"Feature","geometry":{"type":"Point","coordinates":[134.2820984,35.54398061]},"properties":{"id":2167,"title":"福部小学校（避難所)","longitude":134.2820984,"latitude":35.54398061,"分類":"避難所","エリア":"鳥取市","施設名":"福部小学校","住所":"鳥取市福部町高江188","電話":857752004,"FAX":857743741,"headers":["id","title","longitude","latitude","分類","エリア","施設名","住所","電話","FAX"]}},{"id":2170,"type":"Feature","geometry":{"type":"Point","coordinates":[134.1647238,35.38016364]},"properties":{"id":2170,"title":"西郷小学校（避難所)","longitude":134.1647238,"latitude":35.38016364,"分類":"避難所","エリア":"鳥取市","施設名":"西郷小学校","住所":"鳥取市河原町牛戸14-1","電話":858850807,"FAX":858850426,"headers":["id","title","longitude","latitude","分類","エリア","施設名","住所","電話","FAX"]}},{"id":2172,"type":"Feature","geometry":{"type":"Point","coordinates":[134.2054116,35.34209021]},"properties":{"id":2172,"title":"用瀬地区公民館（避難所)","longitude":134.2054116,"latitude":35.34209021,"分類":"避難所","エリア":"鳥取市","施設名":"用瀬地区公民館","住所":"鳥取市用瀬町大字用瀬253","電話":858873411,"FAX":null,"headers":["id","title","longitude","latitude","分類","エリア","施設名","住所","電話","FAX"]}},{"id":2171,"type":"Feature","geometry":{"type":"Point","coordinates":[134.1940373,35.31512842]},"properties":{"id":2171,"title":"社保育園（避難所)","longitude":134.1940373,"latitude":35.31512842,"分類":"避難所","エリア":"鳥取市","施設名":"社保育園","住所":"鳥取市用瀬町大字安蔵887-1","電話":858872325,"FAX":null,"headers":["id","title","longitude","latitude","分類","エリア","施設名","住所","電話","FAX"]}},{"id":2172,"type":"Feature","geometry":{"type":"Point","coordinates":[134.2054116,35.34209021]},"properties":{"id":2172,"title":"用瀬地区公民館（避難所)","longitude":134.2054116,"latitude":35.34209021,"分類":"避難所","エリア":"鳥取市","施設名":"用瀬地区公民館","住所":"鳥取市用瀬町大字用瀬253","電話":858873411,"FAX":null,"headers":["id","title","longitude","latitude","分類","エリア","施設名","住所","電話","FAX"]}},{"id":2174,"type":"Feature","geometry":{"type":"Point","coordinates":[134.2016668,35.33666687]},"properties":{"id":2174,"title":"用瀬小学校（避難所)","longitude":134.2016668,"latitude":35.33666687,"分類":"避難所","エリア":"鳥取市","施設名":"用瀬小学校","住所":"鳥取市用瀬町用瀬75-1","電話":858872214,"FAX":858872395,"headers":["id","title","longitude","latitude","分類","エリア","施設名","住所","電話","FAX"]}},{"id":2175,"type":"Feature","geometry":{"type":"Point","coordinates":[134.2072115,35.34257242]},"properties":{"id":2175,"title":"用瀬総合支所前駐車場（避難所)","longitude":134.2072115,"latitude":35.34257242,"分類":"避難所","エリア":"鳥取市","施設名":"用瀬総合支所前駐車場","住所":"鳥取市用瀬町用瀬832","電話":858872111,"FAX":858872270,"headers":["id","title","longitude","latitude","分類","エリア","施設名","住所","電話","FAX"]}},{"id":2177,"type":"Feature","geometry":{"type":"Point","coordinates":[134.0383332,35.48100504]},"properties":{"id":2177,"title":"逢坂小学校（避難所)","longitude":134.0383332,"latitude":35.48100504,"分類":"避難所","エリア":"鳥取市","施設名":"逢坂小学校","住所":"鳥取市気高町山宮369-2","電話":857842026,"FAX":857843686,"headers":["id","title","longitude","latitude","分類","エリア","施設名","住所","電話","FAX"]}},{"id":2173,"type":"Feature","geometry":{"type":"Point","coordinates":[134.2245451,35.35029669]},"properties":{"id":2173,"title":"赤波集会所（避難所)","longitude":134.2245451,"latitude":35.35029669,"分類":"避難所","エリア":"鳥取市","施設名":"赤波集会所","住所":"鳥取市用瀬町赤波193-4","電話":null,"FAX":null,"headers":["id","title","longitude","latitude","分類","エリア","施設名","住所","電話","FAX"]}},{"id":2178,"type":"Feature","geometry":{"type":"Point","coordinates":[134.0808237,35.51261697]},"properties":{"id":2178,"title":"宝木小学校（避難所)","longitude":134.0808237,"latitude":35.51261697,"分類":"避難所","エリア":"鳥取市","施設名":"宝木小学校","住所":"鳥取市気高町宝木989","電話":857820803,"FAX":857823351,"headers":["id","title","longitude","latitude","分類","エリア","施設名","住所","電話","FAX"]}},{"id":2179,"type":"Feature","geometry":{"type":"Point","coordinates":[134.0690434,35.49282324]},"properties":{"id":2179,"title":"瑞穂小学校（避難所)","longitude":134.0690434,"latitude":35.49282324,"分類":"避難所","エリア":"鳥取市","施設名":"瑞穂小学校","住所":"鳥取市気高町下坂本48","電話":857820361,"FAX":857823548,"headers":["id","title","longitude","latitude","分類","エリア","施設名","住所","電話","FAX"]}},{"id":2180,"type":"Feature","geometry":{"type":"Point","coordinates":[134.0205237,35.51929346]},"properties":{"id":2180,"title":"気高町遊魚センター（避難所)","longitude":134.0205237,"latitude":35.51929346,"分類":"避難所","エリア":"鳥取市","施設名":"気高町遊魚センター","住所":"鳥取市気高町八束水2706-147","電話":857822321,"FAX":null,"headers":["id","title","longitude","latitude","分類","エリア","施設名","住所","電話","FAX"]}},{"id":2181,"type":"Feature","geometry":{"type":"Point","coordinates":[134.0563638,35.51123732]},"properties":{"id":2181,"title":"気高町農業者トレーニングセンター（避難所)","longitude":134.0563638,"latitude":35.51123732,"分類":"避難所","エリア":"鳥取市","施設名":"気高町農業者トレーニングセンター","住所":"鳥取市気高町浜村233-2","電話":857822322,"FAX":null,"headers":["id","title","longitude","latitude","分類","エリア","施設名","住所","電話","FAX"]}},{"id":2183,"type":"Feature","geometry":{"type":"Point","coordinates":[134.0687981,35.46302857]},"properties":{"id":2183,"title":"鹿野町農業者トレーニングセンター（鹿野町中央公民館）（避難所)","longitude":134.0687981,"latitude":35.46302857,"分類":"避難所","エリア":"鳥取市","施設名":"鹿野町農業者トレーニングセンター（鹿野町中央公民館）","住所":"鳥取市鹿野町鹿野342","電話":857842131,"FAX":857842191,"headers":["id","title","longitude","latitude","分類","エリア","施設名","住所","電話","FAX"]}},{"id":2183,"type":"Feature","geometry":{"type":"Point","coordinates":[134.0687981,35.46302857]},"properties":{"id":2183,"title":"鹿野町農業者トレーニングセンター（鹿野町中央公民館）（避難所)","longitude":134.0687981,"latitude":35.46302857,"分類":"避難所","エリア":"鳥取市","施設名":"鹿野町農業者トレーニングセンター（鹿野町中央公民館）","住所":"鳥取市鹿野町鹿野342","電話":857842131,"FAX":857842191,"headers":["id","title","longitude","latitude","分類","エリア","施設名","住所","電話","FAX"]}},{"id":2185,"type":"Feature","geometry":{"type":"Point","coordinates":[134.2541663,35.45833296]},"properties":{"id":2185,"title":"鳥取工業高等学校（避難所)","longitude":134.2541663,"latitude":35.45833296,"分類":"避難所","エリア":"鳥取市","施設名":"鳥取工業高等学校","住所":"鳥取市生山111番地","電話":857518011,"FAX":857518499,"headers":["id","title","longitude","latitude","分類","エリア","施設名","住所","電話","FAX"]}},{"id":2184,"type":"Feature","geometry":{"type":"Point","coordinates":[134.2074916,35.4639076]},"properties":{"id":2184,"title":"(旧)鳥取湖陵高等学校美和分校（鳥取県教育文化財団）（避難所)","longitude":134.2074916,"latitude":35.4639076,"分類":"避難所","エリア":"鳥取市","施設名":"(旧)鳥取湖陵高等学校美和分校（鳥取県教育文化財団）","住所":"鳥取市源太12","電話":857517551,"FAX":null,"headers":["id","title","longitude","latitude","分類","エリア","施設名","住所","電話","FAX"]}},{"id":2186,"type":"Feature","geometry":{"type":"Point","coordinates":[134.1763885,35.5216669]},"properties":{"id":2186,"title":"鳥取湖陵高等学校（避難所)","longitude":134.1763885,"latitude":35.5216669,"分類":"避難所","エリア":"鳥取市","施設名":"鳥取湖陵高等学校","住所":"鳥取市湖山町北3丁目250","電話":857280250,"FAX":857280105,"headers":["id","title","longitude","latitude","分類","エリア","施設名","住所","電話","FAX"]}},{"id":2188,"type":"Feature","geometry":{"type":"Point","coordinates":[134.1775009,35.50888645]},"properties":{"id":2188,"title":"鳥取緑風高等学校（避難所)","longitude":134.1775009,"latitude":35.50888645,"分類":"避難所","エリア":"鳥取市","施設名":"鳥取緑風高等学校","住所":"鳥取市湖山町南3丁目848","電話":857373100,"FAX":857280071,"headers":["id","title","longitude","latitude","分類","エリア","施設名","住所","電話","FAX"]}},{"id":2189,"type":"Feature","geometry":{"type":"Point","coordinates":[133.8356703,35.46488633]},"properties":{"id":2189,"title":"上北条小学校（避難所)","longitude":133.8356703,"latitude":35.46488633,"分類":"避難所","エリア":"倉吉市","施設名":"上北条小学校","住所":"倉吉市新田405番地 1","電話":858266355,"FAX":858266307,"headers":["id","title","longitude","latitude","分類","エリア","施設名","住所","電話","FAX"]}},{"id":2187,"type":"Feature","geometry":{"type":"Point","coordinates":[134.2441665,35.48972204]},"properties":{"id":2187,"title":"鳥取東高等学校（避難所)","longitude":134.2441665,"latitude":35.48972204,"分類":"避難所","エリア":"鳥取市","施設名":"鳥取東高等学校","住所":"鳥取市立川町5丁目210","電話":857228495,"FAX":857228497,"headers":["id","title","longitude","latitude","分類","エリア","施設名","住所","電話","FAX"]}},{"id":2190,"type":"Feature","geometry":{"type":"Point","coordinates":[133.8377761,35.45611326]},"properties":{"id":2190,"title":"伯耆しあわせの郷（避難所)","longitude":133.8377761,"latitude":35.45611326,"分類":"避難所","エリア":"倉吉市","施設名":"伯耆しあわせの郷","住所":"倉吉市小田458番地","電話":858265581,"FAX":858265633,"headers":["id","title","longitude","latitude","分類","エリア","施設名","住所","電話","FAX"]}},{"id":2193,"type":"Feature","geometry":{"type":"Point","coordinates":[133.8408075,35.42922173]},"properties":{"id":2193,"title":"市立上灘小学校（避難所)","longitude":133.8408075,"latitude":35.42922173,"分類":"避難所","エリア":"倉吉市","施設名":"市立上灘小学校","住所":"倉吉市上灘町136番地","電話":858224772,"FAX":858234493,"headers":["id","title","longitude","latitude","分類","エリア","施設名","住所","電話","FAX"]}},{"id":2191,"type":"Feature","geometry":{"type":"Point","coordinates":[133.8431808,35.46248425]},"properties":{"id":2191,"title":"河北小学校（避難所)","longitude":133.8431808,"latitude":35.46248425,"分類":"避難所","エリア":"倉吉市","施設名":"河北小学校","住所":"倉吉市海田西町1丁目130番地","電話":858261630,"FAX":858266921,"headers":["id","title","longitude","latitude","分類","エリア","施設名","住所","電話","FAX"]}},{"id":2193,"type":"Feature","geometry":{"type":"Point","coordinates":[133.8408075,35.42922173]},"properties":{"id":2193,"title":"市立上灘小学校（避難所)","longitude":133.8408075,"latitude":35.42922173,"分類":"避難所","エリア":"倉吉市","施設名":"市立上灘小学校","住所":"倉吉市上灘町136番地","電話":858224772,"FAX":858234493,"headers":["id","title","longitude","latitude","分類","エリア","施設名","住所","電話","FAX"]}},{"id":2194,"type":"Feature","geometry":{"type":"Point","coordinates":[133.8240009,35.43069121]},"properties":{"id":2194,"title":"成徳小学校（避難所)","longitude":133.8240009,"latitude":35.43069121,"分類":"避難所","エリア":"倉吉市","施設名":"成徳小学校","住所":"倉吉市仲ノ町733番地","電話":858226173,"FAX":858234495,"headers":["id","title","longitude","latitude","分類","エリア","施設名","住所","電話","FAX"]}},{"id":2197,"type":"Feature","geometry":{"type":"Point","coordinates":[133.8151196,35.428381]},"properties":{"id":2197,"title":"倉吉西保育園（避難所)","longitude":133.8151196,"latitude":35.428381,"分類":"避難所","エリア":"倉吉市","施設名":"倉吉西保育園","住所":"倉吉市余戸谷町2970番地1","電話":858222687,"FAX":null,"headers":["id","title","longitude","latitude","分類","エリア","施設名","住所","電話","FAX"]}},{"id":2195,"type":"Feature","geometry":{"type":"Point","coordinates":[133.8298653,35.43390495]},"properties":{"id":2195,"title":"東中学校（避難所)","longitude":133.8298653,"latitude":35.43390495,"分類":"避難所","エリア":"倉吉市","施設名":"東中学校","住所":"倉吉市宮川町2丁目76番地","電話":858226295,"FAX":858234498,"headers":["id","title","longitude","latitude","分類","エリア","施設名","住所","電話","FAX"]}},{"id":2196,"type":"Feature","geometry":{"type":"Point","coordinates":[133.811626,35.43266966]},"properties":{"id":2196,"title":"倉吉市明倫公民館（避難所)","longitude":133.811626,"latitude":35.43266966,"分類":"避難所","エリア":"倉吉市","施設名":"倉吉市明倫公民館","住所":"倉吉市福吉町2丁目1674番地","電話":858220642,"FAX":858236015,"headers":["id","title","longitude","latitude","分類","エリア","施設名","住所","電話","FAX"]}},{"id":2199,"type":"Feature","geometry":{"type":"Point","coordinates":[133.8026781,35.42585021]},"properties":{"id":2199,"title":"西中学校（避難所)","longitude":133.8026781,"latitude":35.42585021,"分類":"避難所","エリア":"倉吉市","施設名":"西中学校","住所":"倉吉市西倉吉町170番地","電話":858282841,"FAX":858285630,"headers":["id","title","longitude","latitude","分類","エリア","施設名","住所","電話","FAX"]}},{"id":2201,"type":"Feature","geometry":{"type":"Point","coordinates":[133.792599,35.43171229]},"properties":{"id":2201,"title":"社小学校（避難所)","longitude":133.792599,"latitude":35.43171229,"分類":"避難所","エリア":"倉吉市","施設名":"社小学校","住所":"倉吉市国分寺88番地","電話":858280951,"FAX":858285444,"headers":["id","title","longitude","latitude","分類","エリア","施設名","住所","電話","FAX"]}},{"id":2200,"type":"Feature","geometry":{"type":"Point","coordinates":[133.7819781,35.39214099]},"properties":{"id":2200,"title":"上小鴨小学校（避難所)","longitude":133.7819781,"latitude":35.39214099,"分類":"避難所","エリア":"倉吉市","施設名":"上小鴨小学校","住所":"倉吉市福山30番地","電話":858280954,"FAX":858285657,"headers":["id","title","longitude","latitude","分類","エリア","施設名","住所","電話","FAX"]}},{"id":2198,"type":"Feature","geometry":{"type":"Point","coordinates":[133.8022522,35.41445647]},"properties":{"id":2198,"title":"小鴨小学校（避難所)","longitude":133.8022522,"latitude":35.41445647,"分類":"避難所","エリア":"倉吉市","施設名":"小鴨小学校","住所":"倉吉市中河原775番地1","電話":858280965,"FAX":858283632,"headers":["id","title","longitude","latitude","分類","エリア","施設名","住所","電話","FAX"]}},{"id":2203,"type":"Feature","geometry":{"type":"Point","coordinates":[133.750757,35.40712667]},"properties":{"id":2203,"title":"北谷小学校（避難所)","longitude":133.750757,"latitude":35.40712667,"分類":"避難所","エリア":"倉吉市","施設名":"北谷小学校","住所":"倉吉市沢谷204番地","電話":858280962,"FAX":858286244,"headers":["id","title","longitude","latitude","分類","エリア","施設名","住所","電話","FAX"]}},{"id":2203,"type":"Feature","geometry":{"type":"Point","coordinates":[133.750757,35.40712667]},"properties":{"id":2203,"title":"北谷小学校（避難所)","longitude":133.750757,"latitude":35.40712667,"分類":"避難所","エリア":"倉吉市","施設名":"北谷小学校","住所":"倉吉市沢谷204番地","電話":858280962,"FAX":858286244,"headers":["id","title","longitude","latitude","分類","エリア","施設名","住所","電話","FAX"]}},{"id":2205,"type":"Feature","geometry":{"type":"Point","coordinates":[133.7462364,35.43011765]},"properties":{"id":2205,"title":"高城小学校（避難所)","longitude":133.7462364,"latitude":35.43011765,"分類":"避難所","エリア":"倉吉市","施設名":"高城小学校","住所":"倉吉市上福田722番地2","電話":858280961,"FAX":858286242,"headers":["id","title","longitude","latitude","分類","エリア","施設名","住所","電話","FAX"]}},{"id":2204,"type":"Feature","geometry":{"type":"Point","coordinates":[133.759828,35.40963054]},"properties":{"id":2204,"title":"久米農村広場（避難所)","longitude":133.759828,"latitude":35.40963054,"分類":"避難所","エリア":"倉吉市","施設名":"久米農村広場","住所":"倉吉市福富1番地","電話":null,"FAX":null,"headers":["id","title","longitude","latitude","分類","エリア","施設名","住所","電話","FAX"]}},{"id":2208,"type":"Feature","geometry":{"type":"Point","coordinates":[133.7552634,35.37165089]},"properties":{"id":2208,"title":"鴨川中学校（避難所)","longitude":133.7552634,"latitude":35.37165089,"分類":"避難所","エリア":"倉吉市","施設名":"鴨川中学校","住所":"倉吉市関金町大鳥居25-1","電話":858452555,"FAX":null,"headers":["id","title","longitude","latitude","分類","エリア","施設名","住所","電話","FAX"]}},{"id":2206,"type":"Feature","geometry":{"type":"Point","coordinates":[133.775226,35.46194664]},"properties":{"id":2206,"title":"灘手小学校（避難所)","longitude":133.775226,"latitude":35.46194664,"分類":"避難所","エリア":"倉吉市","施設名":"灘手小学校","住所":"倉吉市尾原500番地","電話":858225404,"FAX":858225400,"headers":["id","title","longitude","latitude","分類","エリア","施設名","住所","電話","FAX"]}},{"id":2207,"type":"Feature","geometry":{"type":"Point","coordinates":[133.69597,35.36226053]},"properties":{"id":2207,"title":"山守小学校（避難所)","longitude":133.69597,"latitude":35.36226053,"分類":"避難所","エリア":"倉吉市","施設名":"山守小学校","住所":"倉吉市関金町堀2163","電話":858452053,"FAX":null,"headers":["id","title","longitude","latitude","分類","エリア","施設名","住所","電話","FAX"]}},{"id":2210,"type":"Feature","geometry":{"type":"Point","coordinates":[133.7128169,35.37165731]},"properties":{"id":2210,"title":"大山池ふれあい広場（避難所)","longitude":133.7128169,"latitude":35.37165731,"分類":"避難所","エリア":"倉吉市","施設名":"大山池ふれあい広場","住所":"倉吉市関金町泰久寺","電話":null,"FAX":null,"headers":["id","title","longitude","latitude","分類","エリア","施設名","住所","電話","FAX"]}},{"id":2211,"type":"Feature","geometry":{"type":"Point","coordinates":[133.7563904,35.38055654]},"properties":{"id":2211,"title":"鳥取県立農業大学校（避難所)","longitude":133.7563904,"latitude":35.38055654,"分類":"避難所","エリア":"倉吉市","施設名":"鳥取県立農業大学校","住所":"倉吉市関金町大鳥居1238番地","電話":858452411,"FAX":858452412,"headers":["id","title","longitude","latitude","分類","エリア","施設名","住所","電話","FAX"]}},{"id":2213,"type":"Feature","geometry":{"type":"Point","coordinates":[133.844748,35.43486614]},"properties":{"id":2213,"title":"倉吉東高等学校（避難所)","longitude":133.844748,"latitude":35.43486614,"分類":"避難所","エリア":"倉吉市","施設名":"倉吉東高等学校","住所":"倉吉市下田中町８０１番地","電話":858225205,"FAX":858225206,"headers":["id","title","longitude","latitude","分類","エリア","施設名","住所","電話","FAX"]}},{"id":2214,"type":"Feature","geometry":{"type":"Point","coordinates":[133.7834084,35.43509481]},"properties":{"id":2214,"title":"倉吉農業高等学校（避難所)","longitude":133.7834084,"latitude":35.43509481,"分類":"避難所","エリア":"倉吉市","施設名":"倉吉農業高等学校","住所":"倉吉市大谷１６６番地","電話":858281341,"FAX":858281342,"headers":["id","title","longitude","latitude","分類","エリア","施設名","住所","電話","FAX"]}},{"id":2214,"type":"Feature","geometry":{"type":"Point","coordinates":[133.7834084,35.43509481]},"properties":{"id":2214,"title":"倉吉農業高等学校（避難所)","longitude":133.7834084,"latitude":35.43509481,"分類":"避難所","エリア":"倉吉市","施設名":"倉吉農業高等学校","住所":"倉吉市大谷１６６番地","電話":858281341,"FAX":858281342,"headers":["id","title","longitude","latitude","分類","エリア","施設名","住所","電話","FAX"]}},{"id":2215,"type":"Feature","geometry":{"type":"Point","coordinates":[133.2919078,35.45651701]},"properties":{"id":2215,"title":"彦名小学校（避難所)","longitude":133.2919078,"latitude":35.45651701,"分類":"避難所","エリア":"米子市","施設名":"彦名小学校","住所":"米子市彦名町4500-2","電話":"0859-29-0928 0859-29-2452","FAX":"0859-29-2475","headers":["id","title","longitude","latitude","分類","エリア","施設名","住所","電話","FAX"]}},{"id":2216,"type":"Feature","geometry":{"type":"Point","coordinates":[133.3602733,35.44778746]},"properties":{"id":2216,"title":"福生東小学校（避難所)","longitude":133.3602733,"latitude":35.44778746,"分類":"避難所","エリア":"米子市","施設名":"福生東小学校","住所":"米子市皆生5丁目18-32","電話":"0859-34-3147 0859-34-3148","FAX":"0859-34-3204","headers":["id","title","longitude","latitude","分類","エリア","施設名","住所","電話","FAX"]}},{"id":2217,"type":"Feature","geometry":{"type":"Point","coordinates":[133.3420415,35.45371064]},"properties":{"id":2217,"title":"福米西小学校（避難所)","longitude":133.3420415,"latitude":35.45371064,"分類":"避難所","エリア":"米子市","施設名":"福米西小学校","住所":"米子市西福原八丁目16-62","電話":"0859-34-5570 0859-34-5648","FAX":"0859-34-5605","headers":["id","title","longitude","latitude","分類","エリア","施設名","住所","電話","FAX"]}},{"id":2219,"type":"Feature","geometry":{"type":"Point","coordinates":[133.357503,35.43192004]},"properties":{"id":2219,"title":"車尾小学校（避難所)","longitude":133.357503,"latitude":35.43192004,"分類":"避難所","エリア":"米子市","施設名":"車尾小学校","住所":"米子市車尾2丁目27-1","電話":"0859-33-4815 0859-34-3346","FAX":"0859-33-4827","headers":["id","title","longitude","latitude","分類","エリア","施設名","住所","電話","FAX"]}},{"id":2220,"type":"Feature","geometry":{"type":"Point","coordinates":[133.3852327,35.4221885]},"properties":{"id":2220,"title":"箕蚊屋小学校（避難所)","longitude":133.3852327,"latitude":35.4221885,"分類":"避難所","エリア":"米子市","施設名":"箕蚊屋小学校","住所":"米子市下新印204-2","電話":"0859-27-0830 0859-27-2351","FAX":"0859-27-2502","headers":["id","title","longitude","latitude","分類","エリア","施設名","住所","電話","FAX"]}},{"id":2221,"type":"Feature","geometry":{"type":"Point","coordinates":[133.3486092,35.42668543]},"properties":{"id":2221,"title":"明道小学校（避難所)","longitude":133.3486092,"latitude":35.42668543,"分類":"避難所","エリア":"米子市","施設名":"明道小学校","住所":"米子市陽田町74-2","電話":"0859-34-3141 0859-34-3142","FAX":"0859-34-3180","headers":["id","title","longitude","latitude","分類","エリア","施設名","住所","電話","FAX"]}},{"id":2222,"type":"Feature","geometry":{"type":"Point","coordinates":[133.323101,35.4385113]},"properties":{"id":2222,"title":"義方小学校（避難所)","longitude":133.323101,"latitude":35.4385113,"分類":"避難所","エリア":"米子市","施設名":"義方小学校","住所":"米子市義方町9丁目20","電話":"0859-34-3145","FAX":"0859-34-3174","headers":["id","title","longitude","latitude","分類","エリア","施設名","住所","電話","FAX"]}},{"id":2223,"type":"Feature","geometry":{"type":"Point","coordinates":[133.2929858,35.47181919]},"properties":{"id":2223,"title":"弓ヶ浜小学校（避難所)","longitude":133.2929858,"latitude":35.47181919,"分類":"避難所","エリア":"米子市","施設名":"弓ヶ浜小学校","住所":"米子市富益町1194","電話":"0859-29-0016 0859-29-2451","FAX":"0859-29-2470","headers":["id","title","longitude","latitude","分類","エリア","施設名","住所","電話","FAX"]}},{"id":2224,"type":"Feature","geometry":{"type":"Point","coordinates":[133.3407972,35.4368021]},"properties":{"id":2224,"title":"啓成小学校（避難所)","longitude":133.3407972,"latitude":35.4368021,"分類":"避難所","エリア":"米子市","施設名":"啓成小学校","住所":"米子市博労町4丁目290","電話":"0859-34-3143 0859-34-3144","FAX":"0859-34-3196","headers":["id","title","longitude","latitude","分類","エリア","施設名","住所","電話","FAX"]}},{"id":2226,"type":"Feature","geometry":{"type":"Point","coordinates":[133.2583313,35.47648691]},"properties":{"id":2226,"title":"崎津小学校（避難所)","longitude":133.2583313,"latitude":35.47648691,"分類":"避難所","エリア":"米子市","施設名":"崎津小学校","住所":"米子市大崎3244","電話":"0859-28-61628380 0859-28-8380","FAX":"0859-28-6164","headers":["id","title","longitude","latitude","分類","エリア","施設名","住所","電話","FAX"]}},{"id":2225,"type":"Feature","geometry":{"type":"Point","coordinates":[133.377344,35.39689959]},"properties":{"id":2225,"title":"五千石小学校（避難所)","longitude":133.377344,"latitude":35.39689959,"分類":"避難所","エリア":"米子市","施設名":"五千石小学校","住所":"米子市諏訪1695","電話":"0859-26-2292 0859-26-3576","FAX":"0859-26-2548","headers":["id","title","longitude","latitude","分類","エリア","施設名","住所","電話","FAX"]}},{"id":2227,"type":"Feature","geometry":{"type":"Point","coordinates":[133.330652,35.42075793]},"properties":{"id":2227,"title":"就将小学校（避難所)","longitude":133.330652,"latitude":35.42075793,"分類":"避難所","エリア":"米子市","施設名":"就将小学校","住所":"米子市愛宕町94","電話":"0859-33-4151 0859-33-4152","FAX":"0859-33-4178","headers":["id","title","longitude","latitude","分類","エリア","施設名","住所","電話","FAX"]}},{"id":2228,"type":"Feature","geometry":{"type":"Point","coordinates":[133.3128321,35.44468113]},"properties":{"id":2228,"title":"住吉小学校（避難所)","longitude":133.3128321,"latitude":35.44468113,"分類":"避難所","エリア":"米子市","施設名":"住吉小学校","住所":"米子市旗ヶ崎5丁目17-1","電話":"0859-29-5541 0859-29-3124","FAX":"0859-29-3327","headers":["id","title","longitude","latitude","分類","エリア","施設名","住所","電話","FAX"]}},{"id":2229,"type":"Feature","geometry":{"type":"Point","coordinates":[133.3609564,35.39808519]},"properties":{"id":2229,"title":"尚徳小学校（避難所)","longitude":133.3609564,"latitude":35.39808519,"分類":"避難所","エリア":"米子市","施設名":"尚徳小学校","住所":"米子市榎原1897","電話":"0859-26-3320 0859-26-4487","FAX":"0859-26-3351","headers":["id","title","longitude","latitude","分類","エリア","施設名","住所","電話","FAX"]}},{"id":2230,"type":"Feature","geometry":{"type":"Point","coordinates":[133.3475553,35.40196451]},"properties":{"id":2230,"title":"成実小学校（避難所)","longitude":133.3475553,"latitude":35.40196451,"分類":"避難所","エリア":"米子市","施設名":"成実小学校","住所":"米子市奈喜良81","電話":"0859-26-0645 0859-26-3543","FAX":"0859-26-0671","headers":["id","title","longitude","latitude","分類","エリア","施設名","住所","電話","FAX"]}},{"id":2231,"type":"Feature","geometry":{"type":"Point","coordinates":[133.2610499,35.49057504]},"properties":{"id":2231,"title":"大篠津小学校（避難所)","longitude":133.2610499,"latitude":35.49057504,"分類":"避難所","エリア":"米子市","施設名":"大篠津小学校","住所":"米子市大篠津町190","電話":"0859-28-8047 0859-28-6123","FAX":"0859-28-6153","headers":["id","title","longitude","latitude","分類","エリア","施設名","住所","電話","FAX"]}},{"id":2232,"type":"Feature","geometry":{"type":"Point","coordinates":[133.4073353,35.41374639]},"properties":{"id":2232,"title":"伯仙小学校（避難所)","longitude":133.4073353,"latitude":35.41374639,"分類":"避難所","エリア":"米子市","施設名":"伯仙小学校","住所":"米子市尾高418-1","電話":"0859-27-1004 0859-27-0829","FAX":"0859-27-1049","headers":["id","title","longitude","latitude","分類","エリア","施設名","住所","電話","FAX"]}},{"id":2233,"type":"Feature","geometry":{"type":"Point","coordinates":[133.3191294,35.45986462]},"properties":{"id":2233,"title":"加茂小学校（避難所)","longitude":133.3191294,"latitude":35.45986462,"分類":"避難所","エリア":"米子市","施設名":"加茂小学校","住所":"米子市両三柳4610","電話":"0859-29-5540 0859-29-2453","FAX":"0859-29-2455","headers":["id","title","longitude","latitude","分類","エリア","施設名","住所","電話","FAX"]}},{"id":2235,"type":"Feature","geometry":{"type":"Point","coordinates":[133.4225674,35.45032263]},"properties":{"id":2235,"title":"淀江小学校（避難所)","longitude":133.4225674,"latitude":35.45032263,"分類":"避難所","エリア":"米子市","施設名":"淀江小学校","住所":"米子市淀江町西原244-2","電話":859563031,"FAX":859563032,"headers":["id","title","longitude","latitude","分類","エリア","施設名","住所","電話","FAX"]}},{"id":2235,"type":"Feature","geometry":{"type":"Point","coordinates":[133.4225674,35.45032263]},"properties":{"id":2235,"title":"淀江小学校（避難所)","longitude":133.4225674,"latitude":35.45032263,"分類":"避難所","エリア":"米子市","施設名":"淀江小学校","住所":"米子市淀江町西原244-2","電話":859563031,"FAX":859563032,"headers":["id","title","longitude","latitude","分類","エリア","施設名","住所","電話","FAX"]}},{"id":2236,"type":"Feature","geometry":{"type":"Point","coordinates":[133.3878548,35.42081725]},"properties":{"id":2236,"title":"箕蚊屋中学校（避難所)","longitude":133.3878548,"latitude":35.42081725,"分類":"避難所","エリア":"米子市","施設名":"箕蚊屋中学校","住所":"米子市下新印196-4","電話":"0859-27-0807 0859-27-2305","FAX":"0859-27-2305","headers":["id","title","longitude","latitude","分類","エリア","施設名","住所","電話","FAX"]}},{"id":2237,"type":"Feature","geometry":{"type":"Point","coordinates":[133.3147426,35.45236702]},"properties":{"id":2237,"title":"加茂中学校（避難所)","longitude":133.3147426,"latitude":35.45236702,"分類":"避難所","エリア":"米子市","施設名":"加茂中学校","住所":"米子市両三柳3883","電話":"0859-29-4333 0859-29-5899","FAX":"0859-29-4356","headers":["id","title","longitude","latitude","分類","エリア","施設名","住所","電話","FAX"]}},{"id":2239,"type":"Feature","geometry":{"type":"Point","coordinates":[133.3191239,35.44247336]},"properties":{"id":2239,"title":"後藤ケ丘中学校（避難所)","longitude":133.3191239,"latitude":35.44247336,"分類":"避難所","エリア":"米子市","施設名":"後藤ケ丘中学校","住所":"米子市上後藤1丁目1-1","電話":"0859-34-3247","FAX":"0859-34-3248","headers":["id","title","longitude","latitude","分類","エリア","施設名","住所","電話","FAX"]}},{"id":2241,"type":"Feature","geometry":{"type":"Point","coordinates":[133.2502975,35.48487432]},"properties":{"id":2241,"title":"美保中学校（避難所)","longitude":133.2502975,"latitude":35.48487432,"分類":"避難所","エリア":"米子市","施設名":"美保中学校","住所":"米子市大篠津町3657-1","電話":"0859-28-8037 0859-28-6122","FAX":"0859-28-9286","headers":["id","title","longitude","latitude","分類","エリア","施設名","住所","電話","FAX"]}},{"id":2240,"type":"Feature","geometry":{"type":"Point","coordinates":[133.354821,35.4272061]},"properties":{"id":2240,"title":"東山中学校（避難所)","longitude":133.354821,"latitude":35.4272061,"分類":"避難所","エリア":"米子市","施設名":"東山中学校","住所":"米子市車尾617","電話":"0859-34-3241 0859-35-8459","FAX":"0859-34-3241","headers":["id","title","longitude","latitude","分類","エリア","施設名","住所","電話","FAX"]}},{"id":2238,"type":"Feature","geometry":{"type":"Point","coordinates":[133.2820616,35.47172713]},"properties":{"id":2238,"title":"弓ヶ浜中学校（避難所)","longitude":133.2820616,"latitude":35.47172713,"分類":"避難所","エリア":"米子市","施設名":"弓ヶ浜中学校","住所":"米子市富益町2070","電話":"0859-28-6864 0859-28-8394","FAX":"0859-28-8394","headers":["id","title","longitude","latitude","分類","エリア","施設名","住所","電話","FAX"]}},{"id":2243,"type":"Feature","geometry":{"type":"Point","coordinates":[133.34624,35.45562226]},"properties":{"id":2243,"title":"市立福米中学校（避難所)","longitude":133.34624,"latitude":35.45562226,"分類":"避難所","エリア":"米子市","施設名":"市立福米中学校","住所":"米子市西福原1636","電話":"0859-34-1250 0859-34-1282","FAX":"0859-34-1250","headers":["id","title","longitude","latitude","分類","エリア","施設名","住所","電話","FAX"]}},{"id":2244,"type":"Feature","geometry":{"type":"Point","coordinates":[133.3297818,35.42121758]},"properties":{"id":2244,"title":"湊山中学校（避難所)","longitude":133.3297818,"latitude":35.42121758,"分類":"避難所","エリア":"米子市","施設名":"湊山中学校","住所":"米子市愛宕町84","電話":"0859-34-3245 0859-35-8592","FAX":"0859-35-8599","headers":["id","title","longitude","latitude","分類","エリア","施設名","住所","電話","FAX"]}},{"id":2247,"type":"Feature","geometry":{"type":"Point","coordinates":[133.3289655,35.43919375]},"properties":{"id":2247,"title":"ねむの木保育園（避難所)","longitude":133.3289655,"latitude":35.43919375,"分類":"避難所","エリア":"米子市","施設名":"ねむの木保育園","住所":"米子市錦町3丁目77","電話":"0859-34-2695","FAX":"0859-34-2695","headers":["id","title","longitude","latitude","分類","エリア","施設名","住所","電話","FAX"]}},{"id":2245,"type":"Feature","geometry":{"type":"Point","coordinates":[133.4215973,35.4531653]},"properties":{"id":2245,"title":"淀江中学校（避難所)","longitude":133.4215973,"latitude":35.4531653,"分類":"避難所","エリア":"米子市","施設名":"淀江中学校","住所":"米子市淀江町西原660","電話":859562021,"FAX":859562096,"headers":["id","title","longitude","latitude","分類","エリア","施設名","住所","電話","FAX"]}},{"id":2246,"type":"Feature","geometry":{"type":"Point","coordinates":[133.339664,35.43330855]},"properties":{"id":2246,"title":"東保育園（避難所)","longitude":133.339664,"latitude":35.43330855,"分類":"避難所","エリア":"米子市","施設名":"東保育園","住所":"米子市博労町3丁目41","電話":"0859-22-5695","FAX":"0859-22-5695","headers":["id","title","longitude","latitude","分類","エリア","施設名","住所","電話","FAX"]}},{"id":2247,"type":"Feature","geometry":{"type":"Point","coordinates":[133.3289655,35.43919375]},"properties":{"id":2247,"title":"ねむの木保育園（避難所)","longitude":133.3289655,"latitude":35.43919375,"分類":"避難所","エリア":"米子市","施設名":"ねむの木保育園","住所":"米子市錦町3丁目77","電話":"0859-34-2695","FAX":"0859-34-2695","headers":["id","title","longitude","latitude","分類","エリア","施設名","住所","電話","FAX"]}},{"id":2248,"type":"Feature","geometry":{"type":"Point","coordinates":[133.3279309,35.43961579]},"properties":{"id":2248,"title":"西保育園（避難所)","longitude":133.3279309,"latitude":35.43961579,"分類":"避難所","エリア":"米子市","施設名":"西保育園","住所":"米子市錦町3丁目92-7","電話":"0859-22-5693","FAX":"0859-22-5693","headers":["id","title","longitude","latitude","分類","エリア","施設名","住所","電話","FAX"]}},{"id":2249,"type":"Feature","geometry":{"type":"Point","coordinates":[133.4050211,35.41711601]},"properties":{"id":2249,"title":"こたか保育園（避難所)","longitude":133.4050211,"latitude":35.41711601,"分類":"避難所","エリア":"米子市","施設名":"こたか保育園","住所":"米子市尾高566","電話":"0859-27-1020","FAX":"0859-27-1020","headers":["id","title","longitude","latitude","分類","エリア","施設名","住所","電話","FAX"]}},{"id":2250,"type":"Feature","geometry":{"type":"Point","coordinates":[133.4086256,35.40312914]},"properties":{"id":2250,"title":"あがた保育園（避難所)","longitude":133.4086256,"latitude":35.40312914,"分類":"避難所","エリア":"米子市","施設名":"あがた保育園","住所":"米子市福万363-4","電話":859271886,"FAX":859271886,"headers":["id","title","longitude","latitude","分類","エリア","施設名","住所","電話","FAX"]}},{"id":2251,"type":"Feature","geometry":{"type":"Point","coordinates":[133.43091,35.45889874]},"properties":{"id":2251,"title":"淀江保育園（避難所)","longitude":133.43091,"latitude":35.45889874,"分類":"避難所","エリア":"米子市","施設名":"淀江保育園","住所":"米子市淀江町淀江485","電話":859563678,"FAX":null,"headers":["id","title","longitude","latitude","分類","エリア","施設名","住所","電話","FAX"]}},{"id":2252,"type":"Feature","geometry":{"type":"Point","coordinates":[133.4326647,35.44051386]},"properties":{"id":2252,"title":"宇田川保育園（避難所)","longitude":133.4326647,"latitude":35.44051386,"分類":"避難所","エリア":"米子市","施設名":"宇田川保育園","住所":"米子市淀江町中西尾224-2","電話":859562087,"FAX":null,"headers":["id","title","longitude","latitude","分類","エリア","施設名","住所","電話","FAX"]}},{"id":2253,"type":"Feature","geometry":{"type":"Point","coordinates":[133.4025012,35.4438909]},"properties":{"id":2253,"title":"大和保育園（避難所)","longitude":133.4025012,"latitude":35.4438909,"分類":"避難所","エリア":"米子市","施設名":"大和保育園","住所":"米子市淀江町中間536-2","電話":859562203,"FAX":null,"headers":["id","title","longitude","latitude","分類","エリア","施設名","住所","電話","FAX"]}},{"id":2254,"type":"Feature","geometry":{"type":"Point","coordinates":[133.3471114,35.42673002]},"properties":{"id":2254,"title":"南保育園（避難所)","longitude":133.3471114,"latitude":35.42673002,"分類":"避難所","エリア":"米子市","施設名":"南保育園","住所":"米子市陽田町45","電話":"0859-22-5697","FAX":"0859-22-5697","headers":["id","title","longitude","latitude","分類","エリア","施設名","住所","電話","FAX"]}},{"id":2255,"type":"Feature","geometry":{"type":"Point","coordinates":[133.291355,35.45515297]},"properties":{"id":2255,"title":"彦名保育園（避難所)","longitude":133.291355,"latitude":35.45515297,"分類":"避難所","エリア":"米子市","施設名":"彦名保育園","住所":"米子市彦名町4500-36","電話":"0859-29-0835","FAX":"0859-29-0835","headers":["id","title","longitude","latitude","分類","エリア","施設名","住所","電話","FAX"]}},{"id":2256,"type":"Feature","geometry":{"type":"Point","coordinates":[133.2561841,35.47527045]},"properties":{"id":2256,"title":"崎津保育園（避難所)","longitude":133.2561841,"latitude":35.47527045,"分類":"避難所","エリア":"米子市","施設名":"崎津保育園","住所":"米子市大崎1444","電話":"0859-28-8381","FAX":"0859-28-8381","headers":["id","title","longitude","latitude","分類","エリア","施設名","住所","電話","FAX"]}},{"id":2259,"type":"Feature","geometry":{"type":"Point","coordinates":[133.3628108,35.40972398]},"properties":{"id":2259,"title":"さくら保育園（避難所)","longitude":133.3628108,"latitude":35.40972398,"分類":"避難所","エリア":"米子市","施設名":"さくら保育園","住所":"米子市兼久606-3","電話":"0859-26-2692","FAX":"0859-26-2692","headers":["id","title","longitude","latitude","分類","エリア","施設名","住所","電話","FAX"]}},{"id":2258,"type":"Feature","geometry":{"type":"Point","coordinates":[133.2962445,35.46522601]},"properties":{"id":2258,"title":"夜見保育園（避難所)","longitude":133.2962445,"latitude":35.46522601,"分類":"避難所","エリア":"米子市","施設名":"夜見保育園","住所":"米子市夜見町1679-8","電話":"0859-29-0927","FAX":"0859-29-0927","headers":["id","title","longitude","latitude","分類","エリア","施設名","住所","電話","FAX"]}},{"id":2257,"type":"Feature","geometry":{"type":"Point","coordinates":[133.2847406,35.47720642]},"properties":{"id":2257,"title":"富益保育園（避難所)","longitude":133.2847406,"latitude":35.47720642,"分類":"避難所","エリア":"米子市","施設名":"富益保育園","住所":"米子市富益町628","電話":"0859-28-8228","FAX":"0859-28-8228","headers":["id","title","longitude","latitude","分類","エリア","施設名","住所","電話","FAX"]}},{"id":2260,"type":"Feature","geometry":{"type":"Point","coordinates":[133.3904427,35.41061837]},"properties":{"id":2260,"title":"春日保育園（避難所)","longitude":133.3904427,"latitude":35.41061837,"分類":"避難所","エリア":"米子市","施設名":"春日保育園","住所":"米子市上新印238","電話":"0859-27-0850","FAX":"0859-27-0850","headers":["id","title","longitude","latitude","分類","エリア","施設名","住所","電話","FAX"]}},{"id":2262,"type":"Feature","geometry":{"type":"Point","coordinates":[133.3618441,35.45633627]},"properties":{"id":2262,"title":"米子市観光センター（避難所)","longitude":133.3618441,"latitude":35.45633627,"分類":"避難所","エリア":"米子市","施設名":"米子市観光センター","住所":"米子市皆生温泉3丁目１－１","電話":"0859-35-0175","FAX":"0859-22-7415","headers":["id","title","longitude","latitude","分類","エリア","施設名","住所","電話","FAX"]}},{"id":2261,"type":"Feature","geometry":{"type":"Point","coordinates":[133.2926198,35.4571338]},"properties":{"id":2261,"title":"あかしや（避難所)","longitude":133.2926198,"latitude":35.4571338,"分類":"避難所","エリア":"米子市","施設名":"あかしや","住所":"米子市夜見町330-3","電話":"0859-29-2585","FAX":"0859-29-2585","headers":["id","title","longitude","latitude","分類","エリア","施設名","住所","電話","FAX"]}},{"id":2263,"type":"Feature","geometry":{"type":"Point","coordinates":[133.3460996,35.43198907]},"properties":{"id":2263,"title":"東山公園合宿所（避難所)","longitude":133.3460996,"latitude":35.43198907,"分類":"避難所","エリア":"米子市","施設名":"東山公園合宿所","住所":"米子市勝田町３６","電話":"0859-35-9988","FAX":null,"headers":["id","title","longitude","latitude","分類","エリア","施設名","住所","電話","FAX"]}},{"id":2264,"type":"Feature","geometry":{"type":"Point","coordinates":[133.3336213,35.43575422]},"properties":{"id":2264,"title":"米子市福祉保健総合センター（避難所)","longitude":133.3336213,"latitude":35.43575422,"分類":"避難所","エリア":"米子市","施設名":"米子市福祉保健総合センター","住所":"米子市錦町1丁目139-3","電話":"0859-23-5491","FAX":"0859-23-5495","headers":["id","title","longitude","latitude","分類","エリア","施設名","住所","電話","FAX"]}},{"id":2266,"type":"Feature","geometry":{"type":"Point","coordinates":[133.3338868,35.42217036]},"properties":{"id":2266,"title":"米子市文化ホール（避難所)","longitude":133.3338868,"latitude":35.42217036,"分類":"避難所","エリア":"米子市","施設名":"米子市文化ホール","住所":"米子市末広町293","電話":"0859-35-4171","FAX":"0859-35-4175","headers":["id","title","longitude","latitude","分類","エリア","施設名","住所","電話","FAX"]}},{"id":2265,"type":"Feature","geometry":{"type":"Point","coordinates":[133.3327885,35.43320933]},"properties":{"id":2265,"title":"米子市公会堂（避難所)","longitude":133.3327885,"latitude":35.43320933,"分類":"避難所","エリア":"米子市","施設名":"米子市公会堂","住所":"米子市角盤町二丁目６１","電話":"0859-22-3236 0859-22-3237","FAX":"0859-22-3237","headers":["id","title","longitude","latitude","分類","エリア","施設名","住所","電話","FAX"]}},{"id":2267,"type":"Feature","geometry":{"type":"Point","coordinates":[133.4192646,35.45303929]},"properties":{"id":2267,"title":"米子市淀江支所庁舎（避難所)","longitude":133.4192646,"latitude":35.45303929,"分類":"避難所","エリア":"米子市","施設名":"米子市淀江支所庁舎","住所":"米子市淀江町西原１１２９－１","電話":"0859-56-3111","FAX":"0859-56-5201","headers":["id","title","longitude","latitude","分類","エリア","施設名","住所","電話","FAX"]}},{"id":2268,"type":"Feature","geometry":{"type":"Point","coordinates":[133.3390102,35.42859481]},"properties":{"id":2268,"title":"米子市営武道館（避難所)","longitude":133.3390102,"latitude":35.42859481,"分類":"避難所","エリア":"米子市","施設名":"米子市営武道館","住所":"米子市糀町1丁目202","電話":"0859-32-0055","FAX":null,"headers":["id","title","longitude","latitude","分類","エリア","施設名","住所","電話","FAX"]}},{"id":2269,"type":"Feature","geometry":{"type":"Point","coordinates":[133.3680878,35.45117483]},"properties":{"id":2269,"title":"心身障害者福祉センター（避難所)","longitude":133.3680878,"latitude":35.45117483,"分類":"避難所","エリア":"米子市","施設名":"心身障害者福祉センター","住所":"米子市皆生新田2丁目10-1","電話":"0859-32-9001","FAX":"0859-35-6577","headers":["id","title","longitude","latitude","分類","エリア","施設名","住所","電話","FAX"]}},{"id":2270,"type":"Feature","geometry":{"type":"Point","coordinates":[133.3619983,35.44854104]},"properties":{"id":2270,"title":"福生東公民館（避難所)","longitude":133.3619983,"latitude":35.44854104,"分類":"避難所","エリア":"米子市","施設名":"福生東公民館","住所":"米子市皆生4丁目8-35","電話":"0859-34-3150","FAX":"0859-34-3177","headers":["id","title","longitude","latitude","分類","エリア","施設名","住所","電話","FAX"]}},{"id":2271,"type":"Feature","geometry":{"type":"Point","coordinates":[133.3532908,35.45114873]},"properties":{"id":2271,"title":"福生西公民館（避難所)","longitude":133.3532908,"latitude":35.45114873,"分類":"避難所","エリア":"米子市","施設名":"福生西公民館","住所":"米子市上福原5丁目9-30","電話":"0859-23-1397","FAX":"0859-23-1794","headers":["id","title","longitude","latitude","分類","エリア","施設名","住所","電話","FAX"]}},{"id":2272,"type":"Feature","geometry":{"type":"Point","coordinates":[133.3178754,35.45543115]},"properties":{"id":2272,"title":"加茂公民館（避難所)","longitude":133.3178754,"latitude":35.45543115,"分類":"避難所","エリア":"米子市","施設名":"加茂公民館","住所":"米子市両三柳3305","電話":"0859-29-5313","FAX":"0859-29-5368","headers":["id","title","longitude","latitude","分類","エリア","施設名","住所","電話","FAX"]}},{"id":2273,"type":"Feature","geometry":{"type":"Point","coordinates":[133.3579647,35.4326266]},"properties":{"id":2273,"title":"車尾公民館（避難所)","longitude":133.3579647,"latitude":35.4326266,"分類":"避難所","エリア":"米子市","施設名":"車尾公民館","住所":"米子市車尾2丁目28-20","電話":"0859-34-3110","FAX":"0859-34-3138","headers":["id","title","longitude","latitude","分類","エリア","施設名","住所","電話","FAX"]}},{"id":2275,"type":"Feature","geometry":{"type":"Point","coordinates":[133.3380441,35.43600512]},"properties":{"id":2275,"title":"啓成公民館（避難所)","longitude":133.3380441,"latitude":35.43600512,"分類":"避難所","エリア":"米子市","施設名":"啓成公民館","住所":"米子市博労町4丁目364","電話":"0859-33-9075","FAX":"0859-33-9083","headers":["id","title","longitude","latitude","分類","エリア","施設名","住所","電話","FAX"]}},{"id":2275,"type":"Feature","geometry":{"type":"Point","coordinates":[133.3380441,35.43600512]},"properties":{"id":2275,"title":"啓成公民館（避難所)","longitude":133.3380441,"latitude":35.43600512,"分類":"避難所","エリア":"米子市","施設名":"啓成公民館","住所":"米子市博労町4丁目364","電話":"0859-33-9075","FAX":"0859-33-9083","headers":["id","title","longitude","latitude","分類","エリア","施設名","住所","電話","FAX"]}},{"id":2276,"type":"Feature","geometry":{"type":"Point","coordinates":[133.3683008,35.39603156]},"properties":{"id":2276,"title":"永江公民館（避難所)","longitude":133.3683008,"latitude":35.39603156,"分類":"避難所","エリア":"米子市","施設名":"永江公民館","住所":"米子市永江502-4","電話":"0859-26-4747","FAX":"0859-26-4853","headers":["id","title","longitude","latitude","分類","エリア","施設名","住所","電話","FAX"]}},{"id":2279,"type":"Feature","geometry":{"type":"Point","coordinates":[133.3905007,35.41096833]},"properties":{"id":2279,"title":"春日公民館（避難所)","longitude":133.3905007,"latitude":35.41096833,"分類":"避難所","エリア":"米子市","施設名":"春日公民館","住所":"米子市上新印238-1","電話":"0859-27-0916","FAX":"0859-27-1971","headers":["id","title","longitude","latitude","分類","エリア","施設名","住所","電話","FAX"]}},{"id":2278,"type":"Feature","geometry":{"type":"Point","coordinates":[133.4081218,35.42207242]},"properties":{"id":2278,"title":"大高公民館（避難所)","longitude":133.4081218,"latitude":35.42207242,"分類":"避難所","エリア":"米子市","施設名":"大高公民館","住所":"米子市尾高1759-1","電話":"0859-27-1003","FAX":"0859-27-1983","headers":["id","title","longitude","latitude","分類","エリア","施設名","住所","電話","FAX"]}},{"id":2277,"type":"Feature","geometry":{"type":"Point","coordinates":[133.3837873,35.4271245]},"properties":{"id":2277,"title":"巌公民館（避難所)","longitude":133.3837873,"latitude":35.4271245,"分類":"避難所","エリア":"米子市","施設名":"巌公民館","住所":"米子市蚊屋291-1","電話":"0859-27-0910","FAX":"0859-27-1978","headers":["id","title","longitude","latitude","分類","エリア","施設名","住所","電話","FAX"]}},{"id":2280,"type":"Feature","geometry":{"type":"Point","coordinates":[133.4094232,35.40323733]},"properties":{"id":2280,"title":"県公民館（避難所)","longitude":133.4094232,"latitude":35.40323733,"分類":"避難所","エリア":"米子市","施設名":"県公民館","住所":"米子市河岡5","電話":"0859-27-1010","FAX":"0859-27-1982","headers":["id","title","longitude","latitude","分類","エリア","施設名","住所","電話","FAX"]}},{"id":2281,"type":"Feature","geometry":{"type":"Point","coordinates":[133.3564647,35.44399947]},"properties":{"id":2281,"title":"福生体育館（避難所)","longitude":133.3564647,"latitude":35.44399947,"分類":"避難所","エリア":"米子市","施設名":"福生体育館","住所":"米子市上福原2丁目1-10","電話":"0859-34-3532","FAX":null,"headers":["id","title","longitude","latitude","分類","エリア","施設名","住所","電話","FAX"]}},{"id":2283,"type":"Feature","geometry":{"type":"Point","coordinates":[133.3614991,35.4003063]},"properties":{"id":2283,"title":"南部体育館（避難所)","longitude":133.3614991,"latitude":35.4003063,"分類":"避難所","エリア":"米子市","施設名":"南部体育館","住所":"米子市榎原1449-4","電話":"0859-26-0663","FAX":null,"headers":["id","title","longitude","latitude","分類","エリア","施設名","住所","電話","FAX"]}},{"id":2282,"type":"Feature","geometry":{"type":"Point","coordinates":[133.251764,35.48567288]},"properties":{"id":2282,"title":"美保体育館（避難所)","longitude":133.251764,"latitude":35.48567288,"分類":"避難所","エリア":"米子市","施設名":"美保体育館","住所":"米子市大篠津町3657-7","電話":"0859-25-0874","FAX":null,"headers":["id","title","longitude","latitude","分類","エリア","施設名","住所","電話","FAX"]}},{"id":2284,"type":"Feature","geometry":{"type":"Point","coordinates":[133.3892687,35.41503815]},"properties":{"id":2284,"title":"箕蚊屋体育館（避難所)","longitude":133.3892687,"latitude":35.41503815,"分類":"避難所","エリア":"米子市","施設名":"箕蚊屋体育館","住所":"米子市下新印1057-2","電話":"0859-27-5620","FAX":null,"headers":["id","title","longitude","latitude","分類","エリア","施設名","住所","電話","FAX"]}},{"id":2285,"type":"Feature","geometry":{"type":"Point","coordinates":[133.2675109,35.46815631]},"properties":{"id":2285,"title":"崎津一区集会所（避難所)","longitude":133.2675109,"latitude":35.46815631,"分類":"避難所","エリア":"米子市","施設名":"崎津一区集会所","住所":"米子市大崎2033-1","電話":null,"FAX":null,"headers":["id","title","longitude","latitude","分類","エリア","施設名","住所","電話","FAX"]}},{"id":2286,"type":"Feature","geometry":{"type":"Point","coordinates":[133.2753204,35.46655091]},"properties":{"id":2286,"title":"富益団地集会所（避難所)","longitude":133.2753204,"latitude":35.46655091,"分類":"避難所","エリア":"米子市","施設名":"富益団地集会所","住所":"米子市富益町4412-72","電話":null,"FAX":null,"headers":["id","title","longitude","latitude","分類","エリア","施設名","住所","電話","FAX"]}},{"id":2287,"type":"Feature","geometry":{"type":"Point","coordinates":[133.2772783,35.47021322]},"properties":{"id":2287,"title":"富益新田集会所（避難所)","longitude":133.2772783,"latitude":35.47021322,"分類":"避難所","エリア":"米子市","施設名":"富益新田集会所","住所":"米子市富益町4438-1","電話":null,"FAX":null,"headers":["id","title","longitude","latitude","分類","エリア","施設名","住所","電話","FAX"]}},{"id":2289,"type":"Feature","geometry":{"type":"Point","coordinates":[133.2616969,35.49669523]},"properties":{"id":2289,"title":"灘浜集会所（避難所)","longitude":133.2616969,"latitude":35.49669523,"分類":"避難所","エリア":"米子市","施設名":"灘浜集会所","住所":"米子市大篠津町14","電話":null,"FAX":null,"headers":["id","title","longitude","latitude","分類","エリア","施設名","住所","電話","FAX"]}},{"id":2291,"type":"Feature","geometry":{"type":"Point","coordinates":[133.4040727,35.40275946]},"properties":{"id":2291,"title":"下福万隣保館（避難所)","longitude":133.4040727,"latitude":35.40275946,"分類":"避難所","エリア":"米子市","施設名":"下福万隣保館","住所":"米子市福万199-1","電話":859270864,"FAX":859270864,"headers":["id","title","longitude","latitude","分類","エリア","施設名","住所","電話","FAX"]}},{"id":2290,"type":"Feature","geometry":{"type":"Point","coordinates":[133.4037324,35.4213545]},"properties":{"id":2290,"title":"前田隣保館（避難所)","longitude":133.4037324,"latitude":35.4213545,"分類":"避難所","エリア":"米子市","施設名":"前田隣保館","住所":"米子市尾高1424-11","電話":"0859-27-1038","FAX":"0859-27-1038","headers":["id","title","longitude","latitude","分類","エリア","施設名","住所","電話","FAX"]}},{"id":2293,"type":"Feature","geometry":{"type":"Point","coordinates":[133.347263,35.45327449]},"properties":{"id":2293,"title":"米子産業体育館駐車場（避難所)","longitude":133.347263,"latitude":35.45327449,"分類":"避難所","エリア":"米子市","施設名":"米子産業体育館駐車場","住所":"米子市東福原8丁目27-1","電話":859350611,"FAX":859350647,"headers":["id","title","longitude","latitude","分類","エリア","施設名","住所","電話","FAX"]}},{"id":2294,"type":"Feature","geometry":{"type":"Point","coordinates":[133.2255633,35.54528186]},"properties":{"id":2294,"title":"境西地区学習等供用施設(しおさい会館)（避難所)","longitude":133.2255633,"latitude":35.54528186,"分類":"避難所","エリア":"境港市","施設名":"境西地区学習等供用施設(しおさい会館)","住所":"境港市大正町97-1","電話":859425180,"FAX":859425180,"headers":["id","title","longitude","latitude","分類","エリア","施設名","住所","電話","FAX"]}},{"id":2295,"type":"Feature","geometry":{"type":"Point","coordinates":[133.2367384,35.54429009]},"properties":{"id":2295,"title":"境東地区学習等供用施設(なぎさ会館)（避難所)","longitude":133.2367384,"latitude":35.54429009,"分類":"避難所","エリア":"境港市","施設名":"境東地区学習等供用施設(なぎさ会館)","住所":"境港市上道町1989-5","電話":859447280,"FAX":859447283,"headers":["id","title","longitude","latitude","分類","エリア","施設名","住所","電話","FAX"]}},{"id":2297,"type":"Feature","geometry":{"type":"Point","coordinates":[133.2448141,35.54569513]},"properties":{"id":2297,"title":"まつぼっくり事業所（旧：台場保育所）（避難所)","longitude":133.2448141,"latitude":35.54569513,"分類":"避難所","エリア":"境港市","施設名":"まつぼっくり事業所（旧：台場保育所）","住所":"境港市岬町45-3","電話":859423912,"FAX":null,"headers":["id","title","longitude","latitude","分類","エリア","施設名","住所","電話","FAX"]}},{"id":2295,"type":"Feature","geometry":{"type":"Point","coordinates":[133.2367384,35.54429009]},"properties":{"id":2295,"title":"境東地区学習等供用施設(なぎさ会館)（避難所)","longitude":133.2367384,"latitude":35.54429009,"分類":"避難所","エリア":"境港市","施設名":"境東地区学習等供用施設(なぎさ会館)","住所":"境港市上道町1989-5","電話":859447280,"FAX":859447283,"headers":["id","title","longitude","latitude","分類","エリア","施設名","住所","電話","FAX"]}},{"id":2296,"type":"Feature","geometry":{"type":"Point","coordinates":[133.2424753,35.54675998]},"properties":{"id":2296,"title":"台場公園（避難所)","longitude":133.2424753,"latitude":35.54675998,"分類":"避難所","エリア":"境港市","施設名":"台場公園","住所":"境港市花町10","電話":null,"FAX":null,"headers":["id","title","longitude","latitude","分類","エリア","施設名","住所","電話","FAX"]}},{"id":2297,"type":"Feature","geometry":{"type":"Point","coordinates":[133.2448141,35.54569513]},"properties":{"id":2297,"title":"まつぼっくり事業所（旧：台場保育所）（避難所)","longitude":133.2448141,"latitude":35.54569513,"分類":"避難所","エリア":"境港市","施設名":"まつぼっくり事業所（旧：台場保育所）","住所":"境港市岬町45-3","電話":859423912,"FAX":null,"headers":["id","title","longitude","latitude","分類","エリア","施設名","住所","電話","FAX"]}},{"id":2299,"type":"Feature","geometry":{"type":"Point","coordinates":[133.2379846,35.54234234]},"properties":{"id":2299,"title":"境港市立第一中学校（避難所)","longitude":133.2379846,"latitude":35.54234234,"分類":"避難所","エリア":"境港市","施設名":"境港市立第一中学校","住所":"境港市上道町1840","電話":859423711,"FAX":null,"headers":["id","title","longitude","latitude","分類","エリア","施設名","住所","電話","FAX"]}},{"id":2300,"type":"Feature","geometry":{"type":"Point","coordinates":[133.2358562,35.53715906]},"properties":{"id":2300,"title":"上道小学校（避難所)","longitude":133.2358562,"latitude":35.53715906,"分類":"避難所","エリア":"境港市","施設名":"上道小学校","住所":"境港市上道町3026","電話":859422574,"FAX":859422783,"headers":["id","title","longitude","latitude","分類","エリア","施設名","住所","電話","FAX"]}},{"id":2301,"type":"Feature","geometry":{"type":"Point","coordinates":[133.2412355,35.52724548]},"properties":{"id":2301,"title":"余子保育所・余子幼稚園（避難所)","longitude":133.2412355,"latitude":35.52724548,"分類":"避難所","エリア":"境港市","施設名":"余子保育所・余子幼稚園","住所":"境港市福定町216","電話":"保育所：0859441393、幼稚園：0859424770","FAX":null,"headers":["id","title","longitude","latitude","分類","エリア","施設名","住所","電話","FAX"]}},{"id":2303,"type":"Feature","geometry":{"type":"Point","coordinates":[133.2315639,35.53244794]},"properties":{"id":2303,"title":"中野西公園（避難所)","longitude":133.2315639,"latitude":35.53244794,"分類":"避難所","エリア":"境港市","施設名":"中野西公園","住所":"境港市中野町５３３９","電話":null,"FAX":null,"headers":["id","title","longitude","latitude","分類","エリア","施設名","住所","電話","FAX"]}},{"id":2304,"type":"Feature","geometry":{"type":"Point","coordinates":[133.2453251,35.51972884]},"properties":{"id":2304,"title":"老人福祉センター（避難所)","longitude":133.2453251,"latitude":35.51972884,"分類":"避難所","エリア":"境港市","施設名":"老人福祉センター","住所":"境港市竹内町40","電話":859452468,"FAX":859456146,"headers":["id","title","longitude","latitude","分類","エリア","施設名","住所","電話","FAX"]}},{"id":2305,"type":"Feature","geometry":{"type":"Point","coordinates":[133.2359536,35.51810421]},"properties":{"id":2305,"title":"誠道小学校（避難所)","longitude":133.2359536,"latitude":35.51810421,"分類":"避難所","エリア":"境港市","施設名":"誠道小学校","住所":"境港市誠道町2062","電話":859456361,"FAX":859457449,"headers":["id","title","longitude","latitude","分類","エリア","施設名","住所","電話","FAX"]}},{"id":2298,"type":"Feature","geometry":{"type":"Point","coordinates":[133.2314329,35.54533504]},"properties":{"id":2298,"title":"日ノ出広場（避難所)","longitude":133.2314329,"latitude":35.54533504,"分類":"避難所","エリア":"境港市","施設名":"日ノ出広場","住所":"境港市日ノ出町58-1","電話":null,"FAX":null,"headers":["id","title","longitude","latitude","分類","エリア","施設名","住所","電話","FAX"]}},{"id":2305,"type":"Feature","geometry":{"type":"Point","coordinates":[133.2359536,35.51810421]},"properties":{"id":2305,"title":"誠道小学校（避難所)","longitude":133.2359536,"latitude":35.51810421,"分類":"避難所","エリア":"境港市","施設名":"誠道小学校","住所":"境港市誠道町2062","電話":859456361,"FAX":859457449,"headers":["id","title","longitude","latitude","分類","エリア","施設名","住所","電話","FAX"]}},{"id":2306,"type":"Feature","geometry":{"type":"Point","coordinates":[133.2443377,35.5035193]},"properties":{"id":2306,"title":"幸神体育館（避難所)","longitude":133.2443377,"latitude":35.5035193,"分類":"避難所","エリア":"境港市","施設名":"幸神体育館","住所":"境港市小篠津町19","電話":null,"FAX":null,"headers":["id","title","longitude","latitude","分類","エリア","施設名","住所","電話","FAX"]}},{"id":2307,"type":"Feature","geometry":{"type":"Point","coordinates":[133.2402642,35.50846198]},"properties":{"id":2307,"title":"市民の森（避難所)","longitude":133.2402642,"latitude":35.50846198,"分類":"避難所","エリア":"境港市","施設名":"市民の森","住所":"境港市幸神町９０７－１外","電話":null,"FAX":null,"headers":["id","title","longitude","latitude","分類","エリア","施設名","住所","電話","FAX"]}},{"id":2309,"type":"Feature","geometry":{"type":"Point","coordinates":[133.249771,35.50915303]},"properties":{"id":2309,"title":"中浜小学校（避難所)","longitude":133.249771,"latitude":35.50915303,"分類":"避難所","エリア":"境港市","施設名":"中浜小学校","住所":"境港市麦垣町432","電話":859450771,"FAX":859457448,"headers":["id","title","longitude","latitude","分類","エリア","施設名","住所","電話","FAX"]}},{"id":2310,"type":"Feature","geometry":{"type":"Point","coordinates":[133.2218691,35.50338645]},"properties":{"id":2310,"title":"市民スポーツ広場（避難所)","longitude":133.2218691,"latitude":35.50338645,"分類":"避難所","エリア":"境港市","施設名":"市民スポーツ広場","住所":"境港市夕日ヶ丘１丁目4133-9","電話":null,"FAX":null,"headers":["id","title","longitude","latitude","分類","エリア","施設名","住所","電話","FAX"]}},{"id":2311,"type":"Feature","geometry":{"type":"Point","coordinates":[133.2188687,35.51681641]},"properties":{"id":2311,"title":"渡小学校（避難所)","longitude":133.2188687,"latitude":35.51681641,"分類":"避難所","エリア":"境港市","施設名":"渡小学校","住所":"境港市渡町901","電話":859450354,"FAX":859457446,"headers":["id","title","longitude","latitude","分類","エリア","施設名","住所","電話","FAX"]}},{"id":2313,"type":"Feature","geometry":{"type":"Point","coordinates":[133.2123958,35.51795212]},"properties":{"id":2313,"title":"渡保育所（避難所)","longitude":133.2123958,"latitude":35.51795212,"分類":"避難所","エリア":"境港市","施設名":"渡保育所","住所":"境港市渡町1342-1","電話":859450656,"FAX":859450656,"headers":["id","title","longitude","latitude","分類","エリア","施設名","住所","電話","FAX"]}},{"id":2314,"type":"Feature","geometry":{"type":"Point","coordinates":[133.2157917,35.52482914]},"properties":{"id":2314,"title":"第三中学校（避難所)","longitude":133.2157917,"latitude":35.52482914,"分類":"避難所","エリア":"境港市","施設名":"第三中学校","住所":"境港市外江町1372","電話":859426663,"FAX":859426664,"headers":["id","title","longitude","latitude","分類","エリア","施設名","住所","電話","FAX"]}},{"id":2315,"type":"Feature","geometry":{"type":"Point","coordinates":[133.2130428,35.53341191]},"properties":{"id":2315,"title":"外江保育所・わかまつ幼稚園（避難所)","longitude":133.2130428,"latitude":35.53341191,"分類":"避難所","エリア":"境港市","施設名":"外江保育所・わかまつ幼稚園","住所":"境港市外江町1770-1","電話":"外江保育所：0859423230、わかまつ幼稚園：0859447001","FAX":859423230,"headers":["id","title","longitude","latitude","分類","エリア","施設名","住所","電話","FAX"]}},{"id":2308,"type":"Feature","geometry":{"type":"Point","coordinates":[133.2454295,35.50286097]},"properties":{"id":2308,"title":"中浜サントピア（中浜緑地）（避難所)","longitude":133.2454295,"latitude":35.50286097,"分類":"避難所","エリア":"境港市","施設名":"中浜サントピア（中浜緑地）","住所":"境港市小篠津町1548-2外","電話":null,"FAX":null,"headers":["id","title","longitude","latitude","分類","エリア","施設名","住所","電話","FAX"]}},{"id":2315,"type":"Feature","geometry":{"type":"Point","coordinates":[133.2130428,35.53341191]},"properties":{"id":2315,"title":"外江保育所・わかまつ幼稚園（避難所)","longitude":133.2130428,"latitude":35.53341191,"分類":"避難所","エリア":"境港市","施設名":"外江保育所・わかまつ幼稚園","住所":"境港市外江町1770-1","電話":"外江保育所：0859423230、わかまつ幼稚園：0859447001","FAX":859423230,"headers":["id","title","longitude","latitude","分類","エリア","施設名","住所","電話","FAX"]}},{"id":2316,"type":"Feature","geometry":{"type":"Point","coordinates":[133.2377047,35.52606551]},"properties":{"id":2316,"title":"境港総合技術高等学校（避難所)","longitude":133.2377047,"latitude":35.52606551,"分類":"避難所","エリア":"境港市","施設名":"境港総合技術高等学校","住所":"境港市竹内町925","電話":859450411,"FAX":859450413,"headers":["id","title","longitude","latitude","分類","エリア","施設名","住所","電話","FAX"]}},{"id":2317,"type":"Feature","geometry":{"type":"Point","coordinates":[133.2341147,35.53646479]},"properties":{"id":2317,"title":"境高等学校（避難所)","longitude":133.2341147,"latitude":35.53646479,"分類":"避難所","エリア":"境港市","施設名":"境高等学校","住所":"境港市上道町3030","電話":859440441,"FAX":859440443,"headers":["id","title","longitude","latitude","分類","エリア","施設名","住所","電話","FAX"]}},{"id":2318,"type":"Feature","geometry":{"type":"Point","coordinates":[134.3609655,35.59993099]},"properties":{"id":2318,"title":"旧東小学校体育館（避難所)","longitude":134.3609655,"latitude":35.59993099,"分類":"避難所","エリア":"岩美町","施設名":"旧東小学校体育館","住所":"岩美町陸上33","電話":857728063,"FAX":null,"headers":["id","title","longitude","latitude","分類","エリア","施設名","住所","電話","FAX"]}},{"id":2319,"type":"Feature","geometry":{"type":"Point","coordinates":[134.3317483,35.5876146]},"properties":{"id":2319,"title":"岩美北小学校体育館（避難所)","longitude":134.3317483,"latitude":35.5876146,"分類":"避難所","エリア":"岩美町","施設名":"岩美北小学校体育館","住所":"岩美町浦富2188","電話":857720266,"FAX":857720267,"headers":["id","title","longitude","latitude","分類","エリア","施設名","住所","電話","FAX"]}},{"id":2320,"type":"Feature","geometry":{"type":"Point","coordinates":[134.329564,35.57462133]},"properties":{"id":2320,"title":"岩美中学校体育館（避難所)","longitude":134.329564,"latitude":35.57462133,"分類":"避難所","エリア":"岩美町","施設名":"岩美中学校体育館","住所":"岩美町浦富707","電話":857720121,"FAX":857731633,"headers":["id","title","longitude","latitude","分類","エリア","施設名","住所","電話","FAX"]}},{"id":2321,"type":"Feature","geometry":{"type":"Point","coordinates":[134.3343148,35.57546463]},"properties":{"id":2321,"title":"中央公民館（避難所)","longitude":134.3343148,"latitude":35.57546463,"分類":"避難所","エリア":"岩美町","施設名":"中央公民館","住所":"岩美町浦富1038","電話":857720510,"FAX":857731440,"headers":["id","title","longitude","latitude","分類","エリア","施設名","住所","電話","FAX"]}},{"id":2322,"type":"Feature","geometry":{"type":"Point","coordinates":[134.3343593,35.57589702]},"properties":{"id":2322,"title":"町民体育館（避難所)","longitude":134.3343593,"latitude":35.57589702,"分類":"避難所","エリア":"岩美町","施設名":"町民体育館","住所":"岩美町浦富1038-6","電話":857731302,"FAX":null,"headers":["id","title","longitude","latitude","分類","エリア","施設名","住所","電話","FAX"]}},{"id":2323,"type":"Feature","geometry":{"type":"Point","coordinates":[134.3308872,35.5794102]},"properties":{"id":2323,"title":"旧保健センター（避難所)","longitude":134.3308872,"latitude":35.5794102,"分類":"避難所","エリア":"岩美町","施設名":"旧保健センター","住所":"岩美町浦富６４５","電話":857731333,"FAX":857731344,"headers":["id","title","longitude","latitude","分類","エリア","施設名","住所","電話","FAX"]}},{"id":2324,"type":"Feature","geometry":{"type":"Point","coordinates":[134.2985046,35.57857154]},"properties":{"id":2324,"title":"岩美西小学校体育館（避難所)","longitude":134.2985046,"latitude":35.57857154,"分類":"避難所","エリア":"岩美町","施設名":"岩美西小学校体育館","住所":"岩美町大谷2343","電話":857728200,"FAX":857728216,"headers":["id","title","longitude","latitude","分類","エリア","施設名","住所","電話","FAX"]}},{"id":2325,"type":"Feature","geometry":{"type":"Point","coordinates":[134.3409209,35.52998664]},"properties":{"id":2325,"title":"旧小田小学校体育館（避難所)","longitude":134.3409209,"latitude":35.52998664,"分類":"避難所","エリア":"岩美町","施設名":"旧小田小学校体育館","住所":"岩美町院内290-3","電話":null,"FAX":null,"headers":["id","title","longitude","latitude","分類","エリア","施設名","住所","電話","FAX"]}},{"id":2326,"type":"Feature","geometry":{"type":"Point","coordinates":[134.3611527,35.60003912]},"properties":{"id":2326,"title":"旧東小学校グラウンド（避難所)","longitude":134.3611527,"latitude":35.60003912,"分類":"避難所","エリア":"岩美町","施設名":"旧東小学校グラウンド","住所":"岩美町陸上33","電話":null,"FAX":null,"headers":["id","title","longitude","latitude","分類","エリア","施設名","住所","電話","FAX"]}},{"id":2327,"type":"Feature","geometry":{"type":"Point","coordinates":[134.3312275,35.58784374]},"properties":{"id":2327,"title":"岩美北小学校（避難所)","longitude":134.3312275,"latitude":35.58784374,"分類":"避難所","エリア":"岩美町","施設名":"岩美北小学校","住所":"岩美町浦富2128","電話":857720266,"FAX":857720267,"headers":["id","title","longitude","latitude","分類","エリア","施設名","住所","電話","FAX"]}},{"id":2329,"type":"Feature","geometry":{"type":"Point","coordinates":[134.3120045,35.59064694]},"properties":{"id":2329,"title":"旧田後小学校体育館（避難所)","longitude":134.3120045,"latitude":35.59064694,"分類":"避難所","エリア":"岩美町","施設名":"旧田後小学校体育館","住所":"岩美町田後159","電話":null,"FAX":null,"headers":["id","title","longitude","latitude","分類","エリア","施設名","住所","電話","FAX"]}},{"id":2328,"type":"Feature","geometry":{"type":"Point","coordinates":[134.3303015,35.57436843]},"properties":{"id":2328,"title":"岩美中学校グラウンド（避難所)","longitude":134.3303015,"latitude":35.57436843,"分類":"避難所","エリア":"岩美町","施設名":"岩美中学校グラウンド","住所":"岩美町浦富707","電話":857720121,"FAX":857731633,"headers":["id","title","longitude","latitude","分類","エリア","施設名","住所","電話","FAX"]}},{"id":2330,"type":"Feature","geometry":{"type":"Point","coordinates":[134.2960271,35.58629233]},"properties":{"id":2330,"title":"旧網代小学校グラウンド（避難所)","longitude":134.2960271,"latitude":35.58629233,"分類":"避難所","エリア":"岩美町","施設名":"旧網代小学校グラウンド","住所":"岩美町網代224","電話":null,"FAX":null,"headers":["id","title","longitude","latitude","分類","エリア","施設名","住所","電話","FAX"]}},{"id":2331,"type":"Feature","geometry":{"type":"Point","coordinates":[134.299385,35.57882323]},"properties":{"id":2331,"title":"岩美西小学校グラウンド（避難所)","longitude":134.299385,"latitude":35.57882323,"分類":"避難所","エリア":"岩美町","施設名":"岩美西小学校グラウンド","住所":"岩美町大谷2343","電話":857728200,"FAX":null,"headers":["id","title","longitude","latitude","分類","エリア","施設名","住所","電話","FAX"]}},{"id":2336,"type":"Feature","geometry":{"type":"Point","coordinates":[134.3295514,35.57470232]},"properties":{"id":2336,"title":"岩美中学校（避難所)","longitude":134.3295514,"latitude":35.57470232,"分類":"避難所","エリア":"岩美町","施設名":"岩美中学校","住所":"岩美町浦富707","電話":857720121,"FAX":857731633,"headers":["id","title","longitude","latitude","分類","エリア","施設名","住所","電話","FAX"]}},{"id":2335,"type":"Feature","geometry":{"type":"Point","coordinates":[134.3409651,35.52974326]},"properties":{"id":2335,"title":"旧小田小学校グラウンド（避難所)","longitude":134.3409651,"latitude":35.52974326,"分類":"避難所","エリア":"岩美町","施設名":"旧小田小学校グラウンド","住所":"岩美町院内290-3","電話":null,"FAX":null,"headers":["id","title","longitude","latitude","分類","エリア","施設名","住所","電話","FAX"]}},{"id":2332,"type":"Feature","geometry":{"type":"Point","coordinates":[134.3127853,35.57104419]},"properties":{"id":2332,"title":"蒲生川河川防災ステーション（避難所)","longitude":134.3127853,"latitude":35.57104419,"分類":"避難所","エリア":"岩美町","施設名":"蒲生川河川防災ステーション","住所":"岩美町岩本","電話":null,"FAX":null,"headers":["id","title","longitude","latitude","分類","エリア","施設名","住所","電話","FAX"]}},{"id":2336,"type":"Feature","geometry":{"type":"Point","coordinates":[134.3295514,35.57470232]},"properties":{"id":2336,"title":"岩美中学校（避難所)","longitude":134.3295514,"latitude":35.57470232,"分類":"避難所","エリア":"岩美町","施設名":"岩美中学校","住所":"岩美町浦富707","電話":857720121,"FAX":857731633,"headers":["id","title","longitude","latitude","分類","エリア","施設名","住所","電話","FAX"]}},{"id":2338,"type":"Feature","geometry":{"type":"Point","coordinates":[134.335997,35.56247366]},"properties":{"id":2338,"title":"岩美南小学校体育館（避難所)","longitude":134.335997,"latitude":35.56247366,"分類":"避難所","エリア":"岩美町","施設名":"岩美南小学校体育館","住所":"岩美町新井419-2","電話":857375222,"FAX":857375223,"headers":["id","title","longitude","latitude","分類","エリア","施設名","住所","電話","FAX"]}},{"id":2340,"type":"Feature","geometry":{"type":"Point","coordinates":[134.2964137,35.58659921]},"properties":{"id":2340,"title":"旧網代小学校体育館（避難所)","longitude":134.2964137,"latitude":35.58659921,"分類":"避難所","エリア":"岩美町","施設名":"旧網代小学校体育館","住所":"岩美町網代224","電話":857723564,"FAX":null,"headers":["id","title","longitude","latitude","分類","エリア","施設名","住所","電話","FAX"]}},{"id":2337,"type":"Feature","geometry":{"type":"Point","coordinates":[134.2990318,35.57838217]},"properties":{"id":2337,"title":"岩美西小学校（避難所)","longitude":134.2990318,"latitude":35.57838217,"分類":"避難所","エリア":"岩美町","施設名":"岩美西小学校","住所":"岩美町大谷2343","電話":857728200,"FAX":857728216,"headers":["id","title","longitude","latitude","分類","エリア","施設名","住所","電話","FAX"]}},{"id":2341,"type":"Feature","geometry":{"type":"Point","coordinates":[134.3001265,35.57789551]},"properties":{"id":2341,"title":"大岩交流センター（避難所)","longitude":134.3001265,"latitude":35.57789551,"分類":"避難所","エリア":"岩美町","施設名":"大岩交流センター","住所":"岩美町大谷2410","電話":857720096,"FAX":null,"headers":["id","title","longitude","latitude","分類","エリア","施設名","住所","電話","FAX"]}},{"id":2342,"type":"Feature","geometry":{"type":"Point","coordinates":[134.3941714,35.52916873]},"properties":{"id":2342,"title":"一寸法師の館（避難所)","longitude":134.3941714,"latitude":35.52916873,"分類":"避難所","エリア":"岩美町","施設名":"一寸法師の館","住所":"岩美町蒲生1115-2","電話":857760636,"FAX":null,"headers":["id","title","longitude","latitude","分類","エリア","施設名","住所","電話","FAX"]}},{"id":2344,"type":"Feature","geometry":{"type":"Point","coordinates":[134.2524639,35.41016629]},"properties":{"id":2344,"title":"中央中学校（避難所)","longitude":134.2524639,"latitude":35.41016629,"分類":"避難所","エリア":"八頭町","施設名":"中央中学校","住所":"八頭町郡家296","電話":858720020,"FAX":858721293,"headers":["id","title","longitude","latitude","分類","エリア","施設名","住所","電話","FAX"]}},{"id":2343,"type":"Feature","geometry":{"type":"Point","coordinates":[134.2554582,35.41820658]},"properties":{"id":2343,"title":"郡家老人福祉センター（避難所)","longitude":134.2554582,"latitude":35.41820658,"分類":"避難所","エリア":"八頭町","施設名":"郡家老人福祉センター","住所":"八頭町宮谷254-1","電話":858723566,"FAX":null,"headers":["id","title","longitude","latitude","分類","エリア","施設名","住所","電話","FAX"]}},{"id":2345,"type":"Feature","geometry":{"type":"Point","coordinates":[134.2500193,35.40585773]},"properties":{"id":2345,"title":"郡家西小学校（避難所)","longitude":134.2500193,"latitude":35.40585773,"分類":"避難所","エリア":"八頭町","施設名":"郡家西小学校","住所":"八頭町郡家541","電話":858730031,"FAX":null,"headers":["id","title","longitude","latitude","分類","エリア","施設名","住所","電話","FAX"]}},{"id":2346,"type":"Feature","geometry":{"type":"Point","coordinates":[134.2488084,35.4069397]},"properties":{"id":2346,"title":"郡家西地区公民館（避難所)","longitude":134.2488084,"latitude":35.4069397,"分類":"避難所","エリア":"八頭町","施設名":"郡家西地区公民館","住所":"八頭町郡家559","電話":858760336,"FAX":null,"headers":["id","title","longitude","latitude","分類","エリア","施設名","住所","電話","FAX"]}},{"id":2348,"type":"Feature","geometry":{"type":"Point","coordinates":[134.2616614,35.34259241]},"properties":{"id":2348,"title":"大江地区公民館（避難所)","longitude":134.2616614,"latitude":35.34259241,"分類":"避難所","エリア":"八頭町","施設名":"大江地区公民館","住所":"八頭町下野335-1","電話":858738838,"FAX":null,"headers":["id","title","longitude","latitude","分類","エリア","施設名","住所","電話","FAX"]}},{"id":2349,"type":"Feature","geometry":{"type":"Point","coordinates":[134.2477715,35.37187423]},"properties":{"id":2349,"title":"済美コミュニティーセンター（避難所)","longitude":134.2477715,"latitude":35.37187423,"分類":"避難所","エリア":"八頭町","施設名":"済美コミュニティーセンター","住所":"八頭町船岡殿426","電話":858720166,"FAX":null,"headers":["id","title","longitude","latitude","分類","エリア","施設名","住所","電話","FAX"]}},{"id":2347,"type":"Feature","geometry":{"type":"Point","coordinates":[134.2627594,35.34248912]},"properties":{"id":2347,"title":"大江小学校（避難所)","longitude":134.2627594,"latitude":35.34248912,"分類":"避難所","エリア":"八頭町","施設名":"大江小学校","住所":"八頭町下野331","電話":858738151,"FAX":858738161,"headers":["id","title","longitude","latitude","分類","エリア","施設名","住所","電話","FAX"]}},{"id":2350,"type":"Feature","geometry":{"type":"Point","coordinates":[134.2427897,35.38788763]},"properties":{"id":2350,"title":"船岡トレーニングセンター（避難所)","longitude":134.2427897,"latitude":35.38788763,"分類":"避難所","エリア":"八頭町","施設名":"船岡トレーニングセンター","住所":"八頭町坂田618","電話":null,"FAX":null,"headers":["id","title","longitude","latitude","分類","エリア","施設名","住所","電話","FAX"]}},{"id":2351,"type":"Feature","geometry":{"type":"Point","coordinates":[134.2495819,35.39131138]},"properties":{"id":2351,"title":"船岡公民館（避難所)","longitude":134.2495819,"latitude":35.39131138,"分類":"避難所","エリア":"八頭町","施設名":"船岡公民館","住所":"八頭町船岡536","電話":858720085,"FAX":null,"headers":["id","title","longitude","latitude","分類","エリア","施設名","住所","電話","FAX"]}},{"id":2352,"type":"Feature","geometry":{"type":"Point","coordinates":[134.249307,35.3906626]},